unique_id,name,boro,geo_dist,projdesc,award,consttype,buildingid,building_address,city,zip_code,borough,latitude,longitude,community_board,community_council,bin,bbl,census_tract,nta,data_as_of,computed_region_efsh_h5xi,computed_region_f5dn_yrer,computed_region_yeji_bk3q,computed_region_92fq_4b7q,computed_region_sbqj_enih
1,"K721 SPED - BROOKLYN",K,21,"FIRE ALARM SYSTEM REPLACEMENT",999.999999,CIP,K722,"64 AVENUE X",Brooklyn,11225,BROOKLYN,40.589317,-73.981310,313,47,3385667,2147483647,308,BK1301,1900-05-23,18183,21,2,45,35
2,"P.S. 117 - QUEENS",Q,28,"LSP DOMESTIC WATER HEATER",999.999999,CIP,Q117,"85-15 143RD STREET",Queens,11225,QUEENS,40.709463,-73.813376,408,24,4208040,2147483647,232,QN0805,1900-05-23,24670,25,3,24,65
3,"P.S. 37 - QUEENS",Q,29,"ELEVATOR / EXTERIOR MASONRY / FIRE ALARM / FLOOD ELIMINATION / PARAPETS",999.999999,CIP,Q037,"179-37 137 AVENUE",Queens,11225,QUEENS,40.675880,-73.758505,412,27,4279864,2147483647,352,QN1205,1900-05-23,15313,41,3,6,71
4,"IT TAKES A VILLAGE ACADEMY - K",K,18,"LSP- AUDITORIUM UPGRADE",999.999999,CIP,K415,"5800 TILDEN AVENUE",Brooklyn,11225,BROOKLYN,40.648657,-73.922171,317,45,3104598,2147483647,936,BK1703,1900-05-23,16866,61,2,26,40
5,"P.S. 87 - BRONX",X,11,Addition,999.999999,CAP,X087,"1935 BUSSING AVENUE",Bronx,10466,BRONX,40.895104,-73.845968,212,12,2069061,2050180001,428,BX1203,1900-05-23,11275,29,5,2,30
6,"P.S. 193 - QUEENS",Q,25,"PATH OF TRAVEL TCU REMOVAL / PLAYGROUND REDEVELOPMENT / PLANYC BOILER CONVERSION / PLANYC CLIMATE CONTROL / TCU REMOVAL/PLAYGROUND REDEVELOPMENT",999.999999,CIP,Q193,"152-20 11 AVENUE",Queens,11225,QUEENS,40.792483,-73.809741,407,19,4103056,2147483647,987,QN0702,1900-05-23,14192,22,3,20,67
7,"P.S. 243 - BROOKLYN",K,16,"EXTERIOR MASONRY / PARAPETS / ROOFS",999.999999,CIP,K243,"1580 DEAN STREET",Brooklyn,11225,BROOKLYN,40.676094,-73.935688,308,36,3035761,2147483647,309,BK0802,1900-05-23,17615,16,2,49,49
8,"P.S. 99 - QUEENS",Q,28,"PLAYGROUND UPGRADE",999.999999,CIP,Q099,"82-37 KEW GARDENS ROAD",Queens,11225,QUEENS,40.711419,-73.828628,409,29,4080168,2147483647,21601,QN0901,1900-05-23,24011,46,3,28,60
9,"P.S. 20 - QUEENS",Q,25,"EXTERIOR MASONRY / FLOOD ELIMINATION / PARAPETS / ROOFS",999.999999,CIP,Q020,"142-30 BARCLAY AVENUE",Queens,11225,QUEENS,40.758689,-73.824832,407,20,4114657,2147483647,855,QN0707,1900-05-23,14190,22,3,3,67
10,"P.S. /I.S 295 - QUEENS",Q,29,"EXTERIOR MASONRY / PARAPETS / ROOFS / RTU REPLACEMENT",999.999999,CIP,Q263,"222-14 JAMAICA AVENUE",Queens,11225,QUEENS,40.720619,-73.731997,413,23,4231378,2147483647,568,QN1303,1900-05-23,24337,63,3,16,63
11,"P.S. 205 - QUEENS",Q,26,"EXTERIOR MASONRY / FLOOD ELIMINATION / PARAPETS / PLANYC BOILER CONVERSION / PLANYC CLIMATE CONTROL / ROOFS",999.999999,CIP,Q205,"75-25 BELL BOULEVARD",Queens,11225,QUEENS,40.737678,-73.756791,411,23,4164007,2147483647,129103,QN1104,1900-05-23,14506,26,3,16,69
12,"HS OF BUSINESS - BRONX",X,9,"EXTERIOR MASONRY / PARAPETS / ROOFS / WINDOWS",999.999999,CIP,X410,"240 EAST 172 STREET",Bronx,11225,BRONX,40.840422,-73.910910,204,16,2007806,2028170002,225,BX0403,1900-05-23,10935,50,5,42,27
13,"P.S. 119 - BROOKLYN",K,22,"EXTERIOR MASONRY / PARAPETS / ROOFS",999.999999,CIP,K119,"3829 AVENUE K",Brooklyn,11225,BROOKLYN,40.625662,-73.938265,318,45,3215816,2147483647,734,BK1801,1900-05-23,17217,5,2,26,38
14,"BOYS & GIRLS HS - BROOKLYN",K,16,"ELECTRICAL WORK FOR A/C INITIATIVE",999.999999,CIP,K455,"1700 FULTON STREET",Brooklyn,11225,BROOKLYN,40.679440,-73.932407,303,36,3047996,2147483647,271,BK0302,1900-05-23,17615,69,2,49,52
15,"P.S. 90 - BROOKLYN",K,21,"FY18 RESO A LIBRARY UPGRADES",999.999999,CIP,K090,"2840 WEST 12 STREET",Brooklyn,11225,BROOKLYN,40.578255,-73.979628,313,47,3196558,2147483647,350,BK1302,1900-05-23,18184,21,2,45,35
16,"IT TAKES A VILLAGE ACADEMY - K",K,18,"EXTERIOR MASONRY / FLOOD ELIMINATION / PARAPETS / ROOFS",999.999999,CIP,K415,"5800 TILDEN AVENUE",Brooklyn,11225,BROOKLYN,40.648657,-73.922171,317,45,3104598,2147483647,936,BK1703,1900-05-23,16866,61,2,26,40
17,"P.S. 95 - QUEENS",Q,29,"LSP DOMESTIC WATER HEATER",999.999999,CIP,Q095,"179-01 90TH AVENUE",Queens,11225,QUEENS,40.710624,-73.783423,412,23,4446042,2147483647,468,QN1201,1900-05-23,24340,41,3,6,61
18,"WHITELAW REID ACADEMY OF ARTS AND BUSINESS - BROOK",K,16,"BUILDING DRAIN BACKUP",999.999999,CIP,K057,"125 STUYVESANT AVENUE",Brooklyn,11225,BROOKLYN,40.691274,-73.933697,303,36,3043822,2147483647,291,BK0302,1900-05-23,18181,69,2,49,52
19,"P.S. 56 - QUEENS",Q,27,"FY21 RESO A IPDVS CAMERA INSTALLATION / IPDVS CAMERA INSTALLATION",999.999999,CIP,Q056,"86-10 114 STREET",Queens,11225,QUEENS,40.699190,-73.835299,409,29,4192689,2147483647,130,QN0902,1900-05-23,24014,46,3,41,60
20,"P.S. 20 - QUEENS",Q,25,"LSP DOMESTIC WATER HEATER REPLACEMENT",999.999999,CIP,Q020,"142-30 BARCLAY AVENUE",Queens,11225,QUEENS,40.758689,-73.824832,407,20,4114657,2147483647,855,QN0707,1900-05-23,14190,22,3,3,67
21,"I.S. 72 - STATEN ISLAND",R,31,"CERTIFICATE OF OCCUPANCY / CHILLER REPLACEMENT",999.999999,CIP,R072,"33 FERNDALE AVENUE","Staten Island",11225,"STATEN IS",40.593005,-74.158988,502,51,5037524,2147483647,27706,SI0204,1900-05-23,10700,30,1,9,75
22,"CHANNEL VIEW SCL FOR RESEARCH - Q",Q,27,"TENNIS COURT REMEDIATION",999.999999,CIP,Q411,"100-00 BEACH CHANNEL DRIVE",Queens,11225,QUEENS,40.586066,-73.822624,414,32,4303773,2147483647,94201,QN1402,1900-05-23,20532,51,3,41,58
23,"DISTRICT 27 PRE-K CENTER @ 160-06 CROSS BAY BOULEVARD - QUEENS",Q,27,Demo,999.999999,CAP,Q486,"160-06 CROSS BAY BOULEVARD",Queens,11414,QUEENS,40.657176,-73.839392,410,32,4293775,2147483647,89201,QN1003,1900-05-23,15314,62,3,41,64
24,"P.S. 236 - BROOKLYN",K,22,"FIRE ALARM REPLACEMENT / FULL PROGRAM ACCESSIBILITY",999.999999,CIP,K236,"6302 AVENUE U",Brooklyn,11225,BROOKLYN,40.615998,-73.912989,318,46,3326821,2147483647,698,BK1802,1900-05-23,13825,5,2,8,38
25,"THE QUEENS SCHOOL OF INQUIRY-Q",Q,25,"EXTERIOR MASONRY / PARAPETS / ROOFS",999.999999,CIP,Q168,"158-40 76 ROAD",Queens,11225,QUEENS,40.724458,-73.810216,408,24,4147847,2147483647,1257,QN0802,1900-05-23,14508,25,3,24,65
26,"P.S. 220 - QUEENS",Q,28,"FLOOD ELIMINATION / PLANYC BOILER CONVERSION / PLANYC CLIMATE CONTROL",999.999999,CIP,Q220,"62-10 108 STREET",Queens,11225,QUEENS,40.736524,-73.851455,406,24,4051290,2147483647,745,QN0602,1900-05-23,14786,40,3,28,70
27,"P.S. 96 - MANHATTAN",M,4,"LOW VOLTAGE ELECTRICAL SYSTEM / PLANYC BOILER CONVERSION / PLANYC CLIMATE CONTROL",999.999999,CIP,M096,"216 EAST 120 STREET",Manhattan,11225,MANHATTAN,40.800256,-73.937558,111,8,1074333,1017840012,194,MN1102,1900-05-23,13093,7,4,35,16
28,"P.S. 102 - QUEENS",Q,24,"FY22 RESO A GYMNASIUM UPGRADE",999.999999,CIP,Q102,"55-24 VAN HORN STREET",Queens,11225,QUEENS,40.733514,-73.877857,404,30,4437597,2147483647,479,QN0401,1900-05-23,14784,66,3,5,68
29,"BROOKLYN TECH HS - K",K,13,"KITCHEN FIRE SUPRESSION SYSTEM / LOW VOLTAGE ELECTRICAL SYSTEM",999.999999,CIP,K430,"29 FT GREENE PLACE",Brooklyn,11225,BROOKLYN,40.688834,-73.976905,302,35,3058752,2147483647,33,BK0203,1900-05-23,17619,68,2,48,55
30,"P.S. 215 - BROOKLYN",K,21,"LSP REPLACE PVI DOMESTIC WATER HEATER",999.999999,CIP,K215,"415 AVENUE S",Brooklyn,11225,BROOKLYN,40.602084,-73.970013,315,44,3178584,2147483647,41401,BK1501,1900-05-23,18183,32,2,45,36
31,"JOHN BOWNE HS - QUEENS",Q,25,"IDA GYM FLOOR REPLACEMENT",999.999999,CIP,Q425,"63-25 MAIN STREET",Queens,11225,QUEENS,40.738139,-73.824944,408,24,4439900,2147483647,809,QN0801,1900-05-23,14509,25,3,24,65
32,"P.S. 62 - BRONX",X,8,"FULL PROGRAM ACCESSIBILITY / WINDOWS",999.999999,CIP,X062,"660 FOX STREET",Bronx,11225,BRONX,40.814031,-73.900609,202,17,2005089,2026830065,83,BX0202,1900-05-23,10933,8,5,35,24
33,"X721 SPED - BRONX",X,11,"EXTERIOR MASONRY WATER PENETRATION / FLOOD ELIMINATION / PARAPETS / ROOFS / WINDOWS",999.999999,CIP,X722,"2697 WESTCHESTER AVENUE",Bronx,11225,BRONX,40.842289,-73.838949,211,13,2045725,2041330200,284,BX1161,1900-05-23,11270,59,5,12,32
34,"HS OF COMPUTERS & TECHNOLOGY - X",X,11,"RESO A GYMNASIUM UPGRADE",999.999999,CIP,X425,"800 EAST GUN HILL ROAD",Bronx,11225,BRONX,40.875953,-73.861970,212,12,2057045,2046330040,372,BX1201,1900-05-23,11605,29,5,2,30
35,"J.H.S. 25 - QUEENS",Q,25,"PA SYSTEM REPLACEMENT",999.999999,CIP,Q025,"34-65 192 STREET",Queens,11225,QUEENS,40.765133,-73.790083,411,19,4119139,2147483647,1139,QN1101,1900-05-23,14193,26,3,20,69
36,"P.S./I.S. 499 - QUEENS",Q,25,"LSP DOMESTIC WATER HEATER REPLACEMENT",999.999999,CIP,Q499,"148-20 REEVES AVENUE",Queens,11225,QUEENS,40.739246,-73.822057,408,24,4467571,2147483647,809,QN0801,1900-05-23,14509,25,3,24,65
37,"P.S. 171 - MANHATTAN",M,4,"ELECTRICAL WORK FOR A/C INITIATIVE / LSP LL26 CODE COMPLIANCE/EXIT SIGN REPLACEMENT",999.999999,CIP,M171,"19 EAST 103 STREET",Manhattan,11225,MANHATTAN,40.792122,-73.951961,111,8,1051497,1016090007,168,MN1101,1900-05-23,12426,7,4,35,14
38,"RICHMOND HILL HS - QUEENS",Q,27,"LOCKER ROOM UPGRADE / LOW VOLTAGE ELECTRICAL SYSTEM / PLANYC BOILER CONVERSION / PLANYC CLIMATE CONTROL / POOL WATER HEATER & FILTRATION",999.999999,CIP,Q475,"89-30 114 STREET",Queens,11225,QUEENS,40.695888,-73.833681,409,29,4195688,2147483647,124,QN0902,1900-05-23,24014,46,3,46,60
39,"D75 SCHOOL @ 72ND STREET - BROOKLYN",K,20,Lease,999.999999,CAP,K464,"1514 72 STREET",Brooklyn,11228,BROOKLYN,40.619061,-74.000753,311,38,3383724,2147483647,190,BK1101,1900-05-23,13511,1,2,44,37
40,"M.S./H.S. 342 - BRONX",X,10,"ELECTRICAL SYSTEMS / EXTERIOR MASONRY / FLOOD ELIMINATION / PARAPETS / ROOFS / WINDOWS",999.999999,CIP,X430,"2780 RESERVOIR AVENUE",Bronx,11225,BRONX,40.870293,-73.898309,207,11,2015241,2032470070,409,BX0702,1900-05-23,11606,24,5,40,34
41,"P.S. 95 - BROOKLYN",K,21,"ELECTRICAL SYSTEMS / LOW VOLTAGE ELECTRICAL SYSTEM / PLANYC BOILER CONVERSION / PLANYC CLIMATE CONTROL",999.999999,CIP,K095,"345 VAN SICKLEN STREET",Brooklyn,11225,BROOKLYN,40.595698,-73.975180,315,44,3192661,2147483647,398,BK1501,1900-05-23,18183,32,2,45,36
42,"SUCCESS ACADEMY CHARTER SCHOOL - BERGEN BEACH - NE",K,22,"IPDVS CAMERA INSTALLATION",999.999999,CIP,K864,"3109 NEWKIRK AVENUE",Brooklyn,11225,BROOKLYN,40.640066,-73.947253,317,45,3112334,2147483647,830,BK1702,1900-05-23,17217,61,2,26,40
43,"QUEENS COLLEGIATE SCHOOL - QUEENS",Q,28,"WEST AREAWAY DRAINS",999.999999,CIP,Q470,"167-01 GOTHIC DRIVE",Queens,11225,QUEENS,40.713218,-73.797237,408,24,4448806,2147483647,452,QN0805,1900-05-23,24340,25,3,24,65
44,"P.S. @ 6740 3RD AVENUE - BROOKLYN",K,20,Demo,999.999999,CAP,K053,"6740 3RD AVENUE",Brooklyn,11220,BROOKLYN,40.637073,-74.025513,310,47,3144616,2147483647,70,BK1001,1900-05-23,18180,10,2,44,41
45,"P.S. 175 - BRONX",X,11,"LSP LL26 CODE COMPLIANCE/EXIT SIGN REPLACEMENT",999.999999,CIP,X175,"200 CITY ISLAND AVENUE",Bronx,11225,BRONX,40.843873,-73.785219,210,13,2082444,2056410280,51601,BX1003,1900-05-23,11273,43,5,12,28
46,"P.S. 175 - QUEENS",Q,28,"ELECTRICAL WORK FOR A/C INITIATIVE / LL26 CODE COMPLIANCE/EXIT SIGN REPLACEMENT",999.999999,CIP,Q175,"64-35 102 STREET",Queens,11225,QUEENS,40.730941,-73.853164,406,29,4051200,2147483647,721,QN0602,1900-05-23,14785,40,3,28,70
47,"I.S. 118 - BRONX",X,10,"FY19 RESO A SUPPLEMENTAL COOLING",999.999999,CIP,X118,"577 EAST 179 STREET",Bronx,11225,BRONX,40.848339,-73.893080,206,15,2011995,2030690001,37504,BX0602,1900-05-23,10935,35,5,22,31
48,"I.S. 229 - BRONX",X,9,"STH SBHC",999.999999,CIP,X229,"275 HARLEM RIVER PARK BRIDGE",Bronx,11225,BRONX,40.852536,-73.921467,205,16,2009253,2028820130,53,BX0501,1900-05-23,10931,6,5,42,29
49,"J.H.S. 52 - MANHATTAN",M,6,"IPDVS CAMERA INSTALLATION",999.999999,CIP,M052,"650 ACADEMY STREET",Manhattan,11225,MANHATTAN,40.866053,-73.924835,112,10,1076776,1022330020,291,MN1203,1900-05-23,13098,47,4,39,22
50,"P.S. 303 - QUEENS",Q,28,"EXTERIOR MASONRY / PARAPETS / ROOF REPLACEMENT",999.999999,CIP,Q003,"68-60 110TH STREET",Queens,11225,QUEENS,40.726100,-73.843502,406,29,4607345,2147483647,739,QN0602,1900-05-23,14786,40,3,28,70
51,"Q811 SPED - QUEENS",Q,29,"FIRE ALARM REPLACEMENT / FULL PROGRAM ACCESSIBILITY",999.999999,CIP,Q822,"114-36 202ND STREET",Queens,11225,QUEENS,40.699646,-73.752519,412,27,4236757,2147483647,520,QN1205,1900-05-23,15312,41,3,6,71
52,"HERBERT H. LEHMAN HS - X",X,8,"EXTERIOR MASONRY / PARAPETS / ROOFS / WINDOWS",999.999999,CIP,X405,"3000 EAST TREMONT AVENUE",Bronx,11225,BRONX,40.840733,-73.838685,210,13,2074045,2053680001,194,BX1002,1900-05-23,11270,43,5,12,28
53,"3K CENTER @ 1450 PLIMPTON AVENUE - BRONX",X,9,Lease,999.999999,CAP,X486,"1450 PLIMPTON AVENUE",Bronx,10452,BRONX,40.843998,-73.922008,204,16,2129309,2028740027,21302,BX0403,1900-05-23,10930,50,5,42,27
54,"I.S. 72 - STATEN ISLAND",R,31,"PLANYC BOILER CONVERSION / PLANYC CLIMATE CONTROL",999.999999,CIP,R072,"33 FERNDALE AVENUE","Staten Island",11225,"STATEN IS",40.593005,-74.158988,502,51,5037524,2147483647,27706,SI0204,1900-05-23,10700,30,1,9,75
55,"P.S. 55 - QUEENS",Q,28,"PLANYC BOILER CONVERSION / PLANYC CLIMATE CONTROL",999.999999,CIP,Q055,"131-10 97 AVENUE",Queens,11225,QUEENS,40.694004,-73.816617,409,29,4200233,2147483647,154,QN0903,1900-05-23,24015,46,3,46,60
56,"NEWCOMERS HIGH SCHOOL - Q",Q,30,"RPZ VALVES",999.999999,CIP,Q450,"28-01 41ST AVENUE",Queens,11225,QUEENS,40.751356,-73.937445,401,26,4004874,2147483647,3301,QN0105,1900-05-23,16858,39,3,33,72
57,"JOHN ADAMS HS - QUEENS",Q,27,"ELECTRICAL WORK FOR A/C INITIATIVE",999.999999,CIP,Q480,"102-10 ROCKAWAY BOULEVARD",Queens,11225,QUEENS,40.679487,-73.836476,410,28,4202849,2147483647,864,QN1001,1900-05-23,24013,62,3,41,64
58,"P.S. 139 - QUEENS",Q,28,"FY16 RESO A SUPPLEMENTAL COOLING",999.999999,CIP,Q139,"93-06 63 DRIVE",Queens,11225,QUEENS,40.728140,-73.863582,406,30,4072457,2147483647,693,QN0601,1900-05-23,14785,40,3,28,70
59,"MNHT COMPR. NIGHT & DAY HS - M",M,2,"FACADE REMEDIATION / FLOOD ELIMINATION / PARAPETS / PATH OF TRAVEL FLOOD ELIMINATION / WINDOWS",999.999999,CIP,M661,"240 2ND AVENUE",Manhattan,11225,MANHATTAN,40.732716,-73.984665,106,2,1020416,1009210064,48,MN0602,1900-05-23,11724,71,4,50,7
60,"I.S. 22 - BRONX",X,9,"ELECTRICAL WORK FOR A/C INITIATIVE",999.999999,CIP,X022,"270 EAST 167 STREET",Bronx,11225,BRONX,40.833131,-73.914027,204,16,2002410,2024380050,175,BX0401,1900-05-23,10934,50,5,42,27
61,"E NY VOC HS OF TRANSIT TECH.-K",K,19,"EXTERIOR MASONRY / FLOOD ELIMINATION / PARAPETS / ROOFS / WINDOWS",999.999999,CIP,K615,"1 WELLS STREET",Brooklyn,11225,BROOKLYN,40.678276,-73.875960,305,37,3327249,2147483647,1196,BK0505,1900-05-23,17215,45,2,37,47
62,"P.S. 236 - BROOKLYN",K,22,"ELECTRICAL WORK FOR A/C INITIATIVE / LL26 CODE COMPLIANCE/EXIT SIGN REPLACEMENT",999.999999,CIP,K236,"6302 AVENUE U",Brooklyn,11225,BROOKLYN,40.615998,-73.912989,318,46,3326821,2147483647,698,BK1802,1900-05-23,13825,5,2,8,38
63,"P.S. 078 - STATEN ISLAND",R,31,"EXTERIOR MASONRY / PARAPETS / ROOFS",999.999999,CIP,R014,"100 TOMPKINS AVENUE","Staten Island",11225,"STATEN IS",40.622293,-74.078425,501,49,5014176,2147483647,29,SI0102,1900-05-23,10691,4,1,13,74
64,"I.S. 54 - MANHATTAN",M,3,"PLANYC BOILER CONVERSION / PLANYC CLIMATE CONTROL",999.999999,CIP,M054,"103 WEST 107 STREET",Manhattan,11225,MANHATTAN,40.800119,-73.962837,107,7,1055990,1018620011,193,MN0703,1900-05-23,12422,20,4,23,15
65,"I.S. 227 - QUEENS",Q,30,"PA SYSTEM REPLACEMENT",999.999999,CIP,Q227,"32-02 JUNCTION BOULEVARD",Queens,11225,QUEENS,40.758408,-73.874472,403,21,4034891,2147483647,353,QN0302,1900-05-23,14511,65,3,21,73
66,"I.S. 459 - BRONX",X,10,"ELECTRICAL WORK FOR A/C INITIATIVE",999.999999,CIP,X115,"120 EAST 184 STREET",Bronx,11225,BRONX,40.859752,-73.900161,205,14,2013899,2031720046,23703,BX0503,1900-05-23,11606,6,5,29,29
67,"P.S. 105 - BRONX",X,11,Addition,999.999999,CAP,X105,"725 BRADY AVENUE",Bronx,10462,BRONX,40.852398,-73.866617,211,13,2048794,2042880001,22404,BX1101,1900-05-23,11271,59,5,12,32
68,"RALPH R. MCKEE CAREER AND TECHNICAL EDUCATION HS -",R,31,"IPDVS CAMERA INSTALLATION",999.999999,CIP,R600,"290 ST MARKS PLACE","Staten Island",11225,"STATEN IS",40.642793,-74.078730,501,49,5000000,2147483647,9,SI0101,1900-05-23,10369,4,1,13,74
69,"P.S. 174 - QUEENS",Q,28,Addition,999.999999,CAP,Q174,"65-10 DIETERLE CRESCENT",Queens,11374,QUEENS,40.720924,-73.861350,406,30,4073904,2147483647,69702,QN0601,1900-05-23,14785,40,3,28,70
70,"P.S. 11 - MANHATTAN",M,2,"ACCESSIBILITY / EXTERIOR MASONRY / PARAPETS / ROOF REPLACEMENT",999.999999,CIP,M011,"320 WEST 21 STREET",Manhattan,11225,MANHATTAN,40.744349,-74.000253,104,3,1013260,1007440024,89,MN0401,1900-05-23,12074,12,4,10,6
71,"P.S. 190 - BROOKLYN",K,19,"STANDALONE GYM ANNEX",999.999999,CIP,K478,"590 SHEFIELD AVENUE",Brooklyn,11225,0,0.000000,0.000000,0,0,0,0,0,0,1900-05-23,0,0,0,0,0
72,"P.S. 188 - MANHATTAN",M,1,"LSP LL26 CODE COMPLIANCE/EXIT SIGN REPLACEMENT",999.999999,CIP,M188,"442 EAST HOUSTON STREET",Manhattan,11225,MANHATTAN,40.719598,-73.977904,103,2,1004349,1003560100,20,MN0303,1900-05-23,11723,70,4,50,5
73,"P.S. 328 - BROOKLYN",K,19,"FY18 RESO A AUDITORIUM  UPGRADE",999.999999,CIP,K328,"330 ALABAMA AVENUE",Brooklyn,11225,BROOKLYN,40.668167,-73.897835,305,42,3084283,2147483647,1134,BK0502,1900-05-23,17214,45,2,25,47
74,"P.S. 182 - BRONX",X,8,"ELECTRICAL WORK FOR A/C INITIATIVE",999.999999,CIP,X182,"601 STICKBALL BOULEVARD",Bronx,11225,BRONX,40.818228,-73.856302,209,18,2021923,2035640001,16,BX0902,1900-05-23,11611,58,5,31,26
75,"P.S. 361 - MANHATTAN",M,1,"WATER INFILTRATION IN ELECTRICAL ROOM",999.999999,CIP,M061,"610 EAST 12 STREET",Manhattan,11225,MANHATTAN,40.727892,-73.978525,103,2,1079053,1003940012,28,MN0303,1900-05-23,11729,70,4,50,5
76,"NEW BRIDGES",K,17,"STANDALONE GYM ANNEX",999.999999,CIP,K474,"272 SCHENECTADY AVENUE",Brooklyn,11225,BROOKLYN,40.669670,-73.933830,308,35,3000000,2147483647,35301,BK0802,1900-05-23,17615,16,2,48,49
77,"P.S. 41 - QUEENS",Q,26,Addition,999.999999,CAP,Q041,"214-43 35 AVENUE",Queens,11361,QUEENS,40.769601,-73.770863,411,19,4135975,2147483647,1097,QN1102,1900-05-23,14196,26,3,20,69
78,"NEW DORP HS - STATEN ISLAND",R,31,"AIR CONDITIONING / COVID BMS REPLACEMENT / COVID VENTILATION / HOT WATER HEATER REPLACEMENT / REPLACE SINGLE STAGE STEAM ABSORBER",999.999999,CIP,R435,"465 NEW DORP LANE","Staten Island",11225,"STATEN IS",40.569393,-74.107737,502,50,5055367,2147483647,11204,SI9592,1900-05-23,10693,30,1,14,76
79,"P.S. 163 - MANHATTAN",M,3,"EXTERIOR MASONRY / FLOOD ELIMINATION / PARAPETS / ROOFS / WINDOWS",999.999999,CIP,M163,"163 WEST 97 STREET",Manhattan,11225,MANHATTAN,40.794442,-73.969139,107,7,1055908,1018520099,185,MN0703,1900-05-23,12422,20,4,23,15
80,"P.S. 284 - BROOKLYN",K,23,"CHARTER MATCH BATHROOM UPGRADE",999.999999,CIP,K284,"213 OSBORN STREET",Brooklyn,11225,BROOKLYN,40.667377,-73.908214,316,41,3081460,2147483647,912,BK1602,1900-05-23,17614,55,2,17,46
81,"LOWER EAST SIDE PREP HS - M",M,1,"EXTERIOR MASONRY / PARAPETS / REINFORCING SUPPORT ELEMENTS / ROOFS",999.999999,CIP,M025,"145 STANTON STREET",Manhattan,11225,MANHATTAN,40.720581,-73.985645,103,1,1004323,1003540080,3001,MN0302,1900-05-23,11723,70,4,32,4
82,"P.S. @ 763 PRESIDENT STREET - BROOKLYN",K,15,Lease,999.999999,CAP,K347,"763 PRESIDENT STREET",Brooklyn,11235,BROOKLYN,40.674465,-73.977497,306,39,3020189,2147483647,157,BK0602,1900-05-23,17617,14,2,27,50
83,"P.S. 130 - QUEENS",Q,26,"DOMESTIC WATER HEATER REPLACEMENT / PLANYC BOILER CONVERSION / PLANYC CLIMATE CONTROL",999.999999,CIP,Q130,"200-01 42 AVENUE",Queens,11225,QUEENS,40.759517,-73.784029,411,19,4137034,2147483647,1463,QN1101,1900-05-23,14196,26,3,20,69
84,"P.S. @ 4302 4TH AVENUE - BROOKLYN",K,15,New,999.999999,CAP,K557,"4302 4TH AVENUE",Brooklyn,11232,BROOKLYN,40.650305,-74.008602,307,38,3000000,2147483647,82,BK0702,1900-05-23,18180,9,2,7,45
85,"LONGWOOD PREPARATORY ACADEMY",X,8,"FLOOD ELIMINATION",999.999999,CIP,X039,"965 LONGWOOD AVENUE",Bronx,11225,BRONX,40.817512,-73.898212,202,17,2005616,2027100001,87,BX0202,1900-05-23,10937,8,5,43,24
86,"P.S. 176 - QUEENS",Q,29,"EXTERIOR MASONRY / PARAPETS",999.999999,CIP,Q176,"120-45 235 STREET",Queens,11225,QUEENS,40.685492,-73.729982,413,27,4276382,2147483647,614,QN1304,1900-05-23,15311,63,3,6,63
87,"P.S. 22 - STATEN ISLAND",R,31,"EXTERIOR MASONRY / FLOOD ELIMINATION / PARAPETS / ROOFS",999.999999,CIP,R022,"1860 FOREST AVENUE","Staten Island",11225,"STATEN IS",40.625369,-74.150970,501,49,5107239,2147483647,30302,SI0107,1900-05-23,10371,4,1,13,75
88,"P.S. 81 - QUEENS",Q,24,"FY21 RESO A CAFETERIA UPGRADE / PATH OF TRAVEL RESO A CAFETERIA UPGRADE",999.999999,CIP,Q848,"511 SENECA AVENUE",Queens,11225,QUEENS,40.705315,-73.911909,405,34,4081987,2147483647,545,QN0502,1900-05-23,15310,54,3,30,62
89,"FASHION INDUSTRIES VOC HS - M",M,2,"EXTERIOR MASONRY / FLOOD ELIMINATION / PARAPETS",999.999999,CIP,M600,"225 WEST 24 STREET",Manhattan,11225,MANHATTAN,40.745156,-73.996074,104,3,1014174,1007740019,91,MN0401,1900-05-23,12074,12,4,10,6
90,"P.S. 61 - BRONX",X,12,"ELECTRICAL WORK FOR A/C INITIATIVE / LSP LL26 CODE COMPLIANCE/EXIT SIGN REPLACEMENT",999.999999,CIP,X061,"1550 CROTONA PARK EAST",Bronx,11225,BRONX,40.836575,-73.892817,203,15,2009865,2029390045,153,BX0303,1900-05-23,11269,34,5,43,25
91,"P.S. 75 - BROOKLYN",K,32,"EXTERIOR MASONRY / FLOOD ELIMINATION / ROOF",999.999999,CIP,K075,"95 GROVE STREET",Brooklyn,11225,BROOKLYN,40.693313,-73.920666,304,37,3075879,2147483647,419,BK0402,1900-05-23,18181,42,2,30,53
92,"I.S. 151 - BRONX",X,7,"IPDVS CAMERA INSTALLATION",999.999999,CIP,X151,"250 EAST 156 STREET",Bronx,11225,BRONX,40.823033,-73.921238,204,16,2002458,2024430190,61,BX0401,1900-05-23,10929,50,5,43,27
93,"NEW DORP HS - STATEN ISLAND",R,31,"EXTERIOR MASONRY / PARAPETS / ROOFS",999.999999,CIP,R435,"465 NEW DORP LANE","Staten Island",11225,"STATEN IS",40.569393,-74.107737,502,50,5055367,2147483647,11204,SI9592,1900-05-23,10693,30,1,14,76
94,"P.S. 75 - MANHATTAN",M,3,"RPZ BACKFLOW PREVENTION DEVICES",999.999999,CIP,M075,"735 WEST END AVENUE",Manhattan,11225,MANHATTAN,40.795157,-73.973292,107,6,1034190,1012530065,183,MN0702,1900-05-23,12422,20,4,19,15
95,"I.S. 129 - BRONX",X,12,"PLANYC BOILER CONVERSION / PLANYC CLIMATE CONTROL",999.999999,CIP,X129,"2055 MAPES AVENUE",Bronx,11225,BRONX,40.845878,-73.886184,206,15,2012957,2031090001,371,BX0602,1900-05-23,11269,35,5,22,31
96,"P.S. 33 - MANHATTAN",M,2,"EXTERIOR MASONRY / ROOFS PLAYGROUND SAFETY SURFACE",999.999999,CIP,M033,"281 9TH AVENUE",Manhattan,11225,MANHATTAN,40.748977,-73.999531,104,3,1012829,1007240023,97,MN0401,1900-05-23,11722,12,4,10,6
97,"P.S. 185 - BROOKLYN",K,20,"EXTERIOR MASONRY / FLOOD ELIMINATION / ROOFS",999.999999,CIP,K185,"8601 RIDGE BOULEVARD",Brooklyn,11225,BROOKLYN,40.623986,-74.033779,310,47,3153416,2147483647,60,BK1001,1900-05-23,17216,10,2,44,41
98,"P.S. 274 - BROOKLYN",K,32,"PATH OF TRAVEL BASKETBALL PLAY YARD RENOVATION / PLAYGROUND REDEVELOPMEMT",999.999999,CIP,K274,"800 BUSHWICK AVENUE",Brooklyn,11225,BROOKLYN,40.694921,-73.927931,304,34,3073752,2147483647,393,BK0401,1900-05-23,18181,42,2,30,53
99,"P.S. 88 - QUEENS",Q,24,"LOW VOLTAGE ELECTRICAL SYSTEM",999.999999,CIP,Q088,"60-85 CATALPA AVENUE",Queens,11225,QUEENS,40.703779,-73.896374,405,30,4085173,2147483647,585,QN0502,1900-05-23,15310,54,3,34,62
100,"CSI HS FOR INTERNATIONAL STUDIES - R",R,31,"IPDVS COMPLETE TECH REFRESH / IPDVS FULL CAMERA UPGRADE",999.999999,CIP,R043,"100 ESSEX DRIVE","Staten Island",11225,"STATEN IS",40.581315,-74.158589,502,51,5149609,2147483647,27702,SI0204,1900-05-23,10700,30,1,9,75
101,"BENJAMIN N. CARDOZO HS - QUEENS",Q,26,"PLANYC BOILER CONVERSION / PLANYC CLIMATE CONTROL",999.999999,CIP,Q415,"57-00 223 STREET",Queens,11225,QUEENS,40.752333,-73.755990,411,23,4161735,2147483647,138501,QN1102,1900-05-23,14506,26,3,16,69
102,"P.S. 111 - BRONX",X,11,"PLANYC BOILER CONVERSION / PLANYC CLIMATE CONTROL",999.999999,CIP,X111,"3740 BAYCHESTER AVENUE",Bronx,11225,BRONX,40.884343,-73.840254,212,12,2065992,2049160001,48401,BX1202,1900-05-23,11275,29,5,2,30
103,"BENJAMIN N. CARDOZO HS - QUEENS",Q,26,"ELECTRICAL WORK FOR A/C INITIATIVE / LL26 CODE COMPLIANCE/EXIT SIGN REPLACEMENT",999.999999,CIP,Q415,"57-00 223 STREET",Queens,11225,QUEENS,40.752333,-73.755990,411,23,4161735,2147483647,138501,QN1102,1900-05-23,14506,26,3,16,69
104,"P.S. 19 - MANHATTAN",M,1,"ELECTRICAL WORK FOR A/C INITIATIVE",999.999999,CIP,M019,"185 1ST AVENUE",Manhattan,11225,MANHATTAN,40.729636,-73.983818,103,2,1006478,1004530034,4001,MN0303,1900-05-23,11724,70,4,50,5
105,"P.S. 52 - QUEENS",Q,29,"PATH OF TRAVEL PAVED AREAS- BLACKTOP / PAVED AREA- BLACKTOP",999.999999,CIP,Q052,"178-37 146 TERRACE",Queens,11225,QUEENS,40.661122,-73.766733,413,31,4285972,2147483647,320,QN1306,1900-05-23,24669,63,3,47,63
106,"P.S. 109 - BROOKLYN",K,22,"LSP REPLACE LEAKING PVI DOMESTIC WATER HEATER",999.999999,CIP,K395,"1001 EAST 45 STREET",Brooklyn,11225,BROOKLYN,40.636455,-73.933582,317,45,3114526,2147483647,836,BK1702,1900-05-23,16866,61,2,26,40
107,"I.S. 281 - BROOKLYN",K,21,"FY20 RESO A AUDITORIUM UPGRADE / FY20 RESO A PATH OF TRAVEL AUDITORIUM UPGRADE",999.999999,CIP,K281,"8787 24 AVENUE",Brooklyn,11225,BROOKLYN,40.595341,-73.993457,311,47,3186626,2147483647,304,BK1103,1900-05-23,17616,1,2,45,37
108,"QUEENS TECH HS - Q",Q,24,"FY18 RESO A IPDVS CAMERA INSTALLATION",999.999999,CIP,Q600,"37-02 47 AVENUE",Queens,11225,QUEENS,40.742205,-73.928219,402,26,4003259,2147483647,189,QN0202,1900-05-23,16858,53,3,33,66
109,"P.S. 59 - BRONX",X,10,"ELECTRICAL WORK FOR A/C INITIATIVE / LSP LL26 CODE COMPLIANCE/EXIT SIGN REPLACEMENT",999.999999,CIP,X059,"2185 BATHGATE AVENUE",Bronx,11225,BRONX,40.852774,-73.893524,206,15,2011538,2030490037,395,BX0602,1900-05-23,10935,35,5,22,31
110,"I.S. 73 - QUEENS",Q,24,"PLANYC BOILER CONVERSION / PLANYC CLIMATE CONTROL",999.999999,CIP,Q073,"70-02 54 AVENUE",Queens,11225,QUEENS,40.729215,-73.893624,405,30,4058611,2147483647,49302,QN0501,1900-05-23,14788,54,3,34,62
111,"P.S. 183 - MANHATTAN",M,2,"FY19 RESO A SUPPLEMENTAL COOLING",999.999999,CIP,M183,"419 EAST 66 STREET",Manhattan,11225,MANHATTAN,40.763736,-73.958150,108,5,1045569,1014610007,116,MN0801,1900-05-23,10090,23,4,1,11
112,"P.S. 114 - QUEENS",Q,27,"LSP- PLAY YARD RENOVATION",999.999999,CIP,Q114,"134-01 CRONSTON AVENUE",Queens,11225,QUEENS,40.578261,-73.854403,414,32,4305615,2147483647,928,QN1403,1900-05-23,20532,51,3,41,58
113,"P.S. 235 - BROOKLYN",K,18,"EXTERIOR MASONRY / PARAPETS / ROOFS",999.999999,CIP,K242,"10001 FLATLANDS AVENUE",Brooklyn,11225,BROOKLYN,40.645243,-73.898241,318,46,3229773,2147483647,974,BK1803,1900-05-23,13827,5,2,8,42
114,"JOHN DEWEY HS - BROOKLYN",K,21,"FY19 RESO A AUDITORIUM UPGRADE",999.999999,CIP,K540,"50 AVENUE X",Brooklyn,11225,BROOKLYN,40.589268,-73.981738,313,47,3194998,2147483647,308,BK1301,1900-05-23,18183,21,2,45,35
115,"P.S. 106 - BROOKLYN",K,32,"LSP DOMESTIC WATER HEATER",999.999999,CIP,K106,"1328 PUTNAM AVENUE",Brooklyn,11225,BROOKLYN,40.693879,-73.913056,304,37,3077286,2147483647,435,BK0402,1900-05-23,18181,42,2,37,53
116,"P.S. 131 - QUEENS",Q,29,"LSP DOMESTIC WATER HEATER REPLACEMENT",999.999999,CIP,Q131,"170-21 84TH AVENUE",Queens,11225,QUEENS,40.716609,-73.794666,408,24,4211112,2147483647,456,QN0805,1900-05-23,24340,25,3,24,65
117,"P.S. 52 - BROOKLYN",K,22,"EXTERIOR MASONRY / FLOOD ELIMINATION / WINDOWS",999.999999,CIP,K052,"2675 EAST 29 STREET",Brooklyn,11225,BROOKLYN,40.587920,-73.940532,315,48,3205435,2147483647,600,BK1503,1900-05-23,13826,32,2,15,36
118,"HILLSIDE ACADEMY FOR ARTS AND LETTERS - Q",Q,28,"LSP DOMESTIC WATER HEATER",999.999999,CIP,Q470,"167-01 GOTHIC DRIVE",Queens,11225,QUEENS,40.713218,-73.797237,408,24,4448806,2147483647,452,QN0805,1900-05-23,24340,25,3,24,65
119,"P.S. 13 - QUEENS",Q,24,"EXTERIOR MASONRY / FLOOD ELIMINATION / PARAPETS / ROOFS / WINDOWS",999.999999,CIP,Q013,"55-01 94TH STREET",Queens,11225,QUEENS,40.737613,-73.868510,404,25,4437297,2147483647,457,QN0401,1900-05-23,14784,66,3,5,68
120,"P.S./I.S. 266 - QUEENS",Q,26,"LSP HOT WATER HEATER",999.999999,CIP,Q266,"74-10 COMMONWEALTH BOULEVARD",Queens,11225,QUEENS,40.746231,-73.727614,413,23,4529900,2147483647,1567,QN1302,1900-05-23,24335,63,3,16,63
121,"I.S. 119 - QUEENS",Q,24,"EXTERIOR DOORS / EXTERIOR MASONRY / FIRE ALARM / FLOOD ELIMINATION / LL26 EXIT SIGNS / PARAPETS / ROOFS / WINDOWS",999.999999,CIP,Q119,"74-01 78 AVENUE",Queens,11225,QUEENS,40.704406,-73.875183,405,32,4092660,2147483647,63301,QN0503,1900-05-23,15310,54,3,34,62
122,"P.S./I.S. @ 3761 10TH AVENUE - MANHATTAN",M,6,New,999.999999,CAP,M502,"3761 10TH AVENUE",Manhattan,10034,MANHATTAN,40.860962,-73.921475,112,10,1000000,1021980001,299,MN1203,1900-05-23,13092,47,4,39,22
123,"P.S. 152 - QUEENS",Q,30,"ELECTRICAL WORK FOR A/C INITIATIVE",999.999999,CIP,Q152,"33-52 62 STREET",Queens,11225,QUEENS,40.753037,-73.900123,402,25,4027102,2147483647,293,QN0203,1900-05-23,14787,53,3,33,66
124,"P.S. 22 - QUEENS",Q,25,"TCU REMOVAL/PLAYGROUND REDEVELOPMENT",999.999999,CIP,Q022,"153-33 SANFORD AVENUE",Queens,11225,QUEENS,40.761249,-73.811808,407,20,4438184,2147483647,1167,QN0704,1900-05-23,14190,22,3,3,67
125,"QUEENS METROPOLITAN HIGH SCHOOL - QUEENS",Q,28,"FY16 RESO A GREEN ROOF",999.999999,CIP,Q686,"91-30 METROPOLITAN AVENUE",Queens,11225,QUEENS,40.711367,-73.856698,406,29,4447233,2147483647,645,QN0602,1900-05-23,14786,40,3,28,70
126,"I.S. @ 47-10 BARNETT AVENUE - QUEENS",Q,30,New,999.999999,CAP,Q429,"47-10 BARNETT AVENUE",Queens,11104,QUEENS,40.750017,-73.915867,402,26,4000846,2147483647,169,QN0202,1900-05-23,16861,53,3,33,66
127,"ALFRED E. SMITH HS - X",X,7,"ROOM CONVERSION / UPGRADE PLUMBING SHOP-RM B-50 & ELE",999.999999,CIP,X600,"333 EAST 151 STREET",Bronx,11225,BRONX,40.818232,-73.919867,201,17,2001874,2024110022,67,BX0102,1900-05-23,10929,49,5,43,23
128,"P.S. 452 - MANHATTAN",M,3,"ELECTRICAL WORK FOR A/C INITIATIVE / LL26 CODE COMPLIANCE/EXIT SIGN REPLACEMENT",999.999999,CIP,M191,"210 WEST 61 STREET",Manhattan,11225,MANHATTAN,40.771966,-73.987429,107,6,1030320,1011520029,147,MN0701,1900-05-23,12420,20,4,19,12
129,"P.S. 152 - MANHATTAN",M,6,"NYS AUDITORIUM UPGRADE",999.999999,CIP,M152,"93 NAGLE AVENUE",Manhattan,11225,MANHATTAN,40.860412,-73.927936,112,10,1064149,1021730001,283,MN1202,1900-05-23,13098,47,4,39,22
130,"P.S. 154 - QUEENS",Q,25,"ELECTRICAL WORK FOR A/C INITIATIVE",999.999999,CIP,Q154,"75-02 162 STREET",Queens,11225,QUEENS,40.726769,-73.806894,408,24,4148003,2147483647,1257,QN0802,1900-05-23,14508,25,3,24,65
131,"P.S. 527 - MANHATTAN",M,2,"FY18 RESO A IPDVS SURVEILLANCE CAMERA INSTALLATION / FY19 RESO A IPDVS CAMERA INSTALLATION / FY20 RESO A IPDVS CAMERA INSTALLATION",999.999999,CIP,M816,"323 EAST 91 STREET",Manhattan,11225,MANHATTAN,40.780763,-73.948690,108,5,1050217,1015540015,15402,MN0803,1900-05-23,10099,23,4,1,11
132,"THE URBAN ASSEMBLY BRONX ACADEMY OF LETTERS",X,7,"EXTERIOR MASONRY / FLOOD ELIMINATION / PARAPETS / ROOFS",999.999999,CIP,X183,"339 MORRIS AVENUE",Bronx,11225,BRONX,40.813641,-73.925313,201,8,2000957,2023330070,51,BX0101,1900-05-23,10929,49,5,35,23
133,"P.S. 189 - MANHATTAN",M,6,"EXTERIOR MASONRY / FLOOD ELIMINATION / PARAPETS / PLAYGROUND / ROOFS",999.999999,CIP,M189,"2580 AMSTERDAM AVENUE",Manhattan,11225,MANHATTAN,40.852631,-73.927604,112,10,1076750,1021590051,277,MN1202,1900-05-23,13098,47,4,39,22
134,"P.S. 37 - BRONX",X,10,"PA SYSTEM REPLACEMENT",999.999999,CIP,X037,"360 W 230TH STREET",Bronx,11225,BRONX,40.880263,-73.910466,208,11,2097990,2057160725,29302,BX0803,1900-05-23,11272,48,5,40,33
135,"I.S. 653 - BROOKLYN",K,13,New,999.999999,CAP,K653,"491 DEAN STREET",Brooklyn,11217,BROOKLYN,40.681392,-73.973655,308,35,0,0,161,BK0801,1900-05-23,17619,16,2,48,50
136,"P.S. 114 - BRONX",X,9,"EXTERIOR MASONRY / FLOOD ELIMINATION / ROOFS / WINDOWS",999.999999,CIP,X114,"1155 CROMWELL AVENUE",Bronx,11225,BRONX,40.834776,-73.923067,204,16,2003022,2024950100,6302,BX0491,1900-05-23,10930,50,5,42,27
137,"MOTT HALL HS - MANHATTAN",M,5,"RPZ BACKFLOW PREVENTION DEVICES",999.999999,CIP,M136,"6 EDGECOMBE AVENUE",Manhattan,11225,MANHATTAN,40.817372,-73.947712,110,9,1059460,1019600001,22102,MN1002,1900-05-23,12427,18,4,36,20
138,"P.S. 41 - QUEENS",Q,26,Demo,999.999999,CAP,Q041,"214-43 35 AVENUE",Queens,11361,QUEENS,40.769601,-73.770863,411,19,4135975,2147483647,1097,QN1102,1900-05-23,14196,26,3,20,69
139,"FIORELLO LAGUARDIA HS - MANHATTAN",M,3,"FIRE SPRINKLER SYSTEM / RPZ BACKFLOW PREVENTION DEVICES",999.999999,CIP,M485,"100 AMSTERDAM AVENUE",Manhattan,11225,MANHATTAN,40.773629,-73.985273,107,6,1030341,1011560030,15101,MN0701,1900-05-23,12420,20,4,19,12
140,"P.S. 160 - BRONX",X,11,"LSP HOT WATER TANK IN BOILER ROOM",999.999999,CIP,X160,"4140 HUTCHINSON RIVER PARKWAY EAST",Bronx,11225,BRONX,40.864687,-73.824299,210,12,2072352,2051350200,30201,BX1004,1900-05-23,12344,43,5,2,28
141,"P.S. 51 - QUEENS",Q,27,"C OF O",999.999999,CIP,Q051,"87-45 117TH STREET",Queens,11225,QUEENS,40.699015,-73.832356,409,29,4449704,2147483647,122,QN0902,1900-05-23,24014,46,3,28,60
142,"P.S. 46 - STATEN ISLAND",R,31,"FY18 RESO A ROOM CONVERSIONS/PARTITIONING",999.999999,CIP,R046,"41 REID AVENUE","Staten Island",11225,"STATEN IS",40.593770,-74.080580,502,50,5047613,2147483647,64,SI0201,1900-05-23,10692,30,1,14,76
143,"P.S./I.S. 208 - QUEENS",Q,26,"COVID VENTILATION",999.999999,CIP,Q208,"74-30 COMMONWEALTH BOULEVARD",Queens,11225,QUEENS,40.745948,-73.727456,413,23,4529898,2147483647,1567,QN1302,1900-05-23,24335,63,3,16,63
144,"BRONX LAB SCHOOL - BRONX",X,11,"INTERIOR SPACES",999.999999,CIP,X425,"800 EAST GUN HILL ROAD",Bronx,11225,BRONX,40.875953,-73.861970,212,12,2057045,2046330040,372,BX1201,1900-05-23,11605,29,5,2,30
145,"P.S. 253 - QUEENS",Q,27,"LSP DOMESTIC WATER HEATER REPLACEMENT",999.999999,CIP,Q253,"1307 CENTRAL AVENUE",Queens,11225,QUEENS,40.607290,-73.749400,414,31,4297972,2147483647,103202,QN1401,1900-05-23,20529,51,3,47,59
146,"P.S. 277 - BRONX",X,7,"EXTERIOR MASONRY / FLOOD ELIMINATION / ROOFS",999.999999,CIP,X027,"519 ST ANNS AVENUE",Bronx,11225,BRONX,40.813517,-73.913402,201,8,2000114,2022740023,43,BX0101,1900-05-23,10933,49,5,35,23
147,"P.S. 102 - BROOKLYN",K,20,"FY19 RESO A AUDITORIUM UPGRADE / PATH OF TRAVEL RESO A AUDITORIUM UPGRADE",999.999999,CIP,K102,"211 72 STREET",Brooklyn,11225,BROOKLYN,40.634020,-74.029036,310,47,3146491,2147483647,68,BK1001,1900-05-23,17216,10,2,44,41
148,"MANHATTAN BRIDGES - MANHATTAN",M,2,"EXTERIOR MASONRY / PARAPETS / ROOFS",999.999999,CIP,M535,"525 WEST 50 STREET",Manhattan,11225,MANHATTAN,40.765234,-73.993076,104,3,1083802,1010790029,13501,MN0402,1900-05-23,12081,12,4,10,10
149,"P.S. 84 - BROOKLYN",K,14,"PLANYC BOILER CONVERSION / PLANYC CLIMATE CONTROL",999.999999,CIP,K084,"250 BERRY STREET",Brooklyn,11225,BROOKLYN,40.714785,-73.963000,301,34,3062766,2147483647,551,BK0102,1900-05-23,17613,36,2,30,56
150,"P.S. 195 - QUEENS",Q,29,"PARAPETS / ROOFS / WATER PENETRATION",999.999999,CIP,Q195,"253-50 149 AVENUE",Queens,11225,QUEENS,40.653006,-73.736395,413,31,4290116,2147483647,66403,QN1307,1900-05-23,24018,63,3,47,63
151,"P.S. 195 - BROOKLYN",K,22,"EXTERIOR MASONRY",999.999999,CIP,K195,"131 IRWIN STREET",Brooklyn,11225,BROOKLYN,40.579451,-73.943819,315,48,3246519,2147483647,620,BK1503,1900-05-23,13826,32,2,15,36
152,"P.S. 2 - MANHATTAN",M,2,"FY20 RESO A AUDITORIUM UPGRADE",999.999999,CIP,M002,"122 HENRY STREET",Manhattan,11225,MANHATTAN,40.713273,-73.991339,103,1,1003248,1002730001,6,MN0301,1900-05-23,11723,70,4,32,4
153,"P.S. 112 - BROOKLYN",K,20,"EXTERIOR MASONRY / PARAPETS / ROOFS / WATER INFILTRATION / WINDOWS",999.999999,CIP,K112,"7115 15 AVENUE",Brooklyn,11225,BROOKLYN,40.619780,-74.000792,311,38,3157760,2147483647,190,BK1101,1900-05-23,13511,1,2,44,37
154,"AVIATION HS - QUEENS",Q,24,"IDA GYM FLOOR REPLACEMENT @ Q610",999.999999,CIP,Q610,"45-30 36 STREET",Queens,11225,QUEENS,40.743509,-73.929076,402,26,4436685,2147483647,17902,QN0202,1900-05-23,16858,53,3,33,66
155,"P.S. 169 - BROOKLYN",K,15,"EXTERIOR MASONRY / PARAPETS / ROOF REPLACEMENT / WINDOWS",999.999999,CIP,K169,"4305 7 AVENUE",Brooklyn,11225,BROOKLYN,40.646290,-74.001903,307,38,3011002,2147483647,9201,BK0703,1900-05-23,13515,9,2,7,45
156,"P.S. 58 - BROOKLYN",K,15,"FY20 RESO A  PATH OF TRAVEL PLAYGROUND UPGRADE / FY20 RESO A PLAYGROUND UPGRADE",999.999999,CIP,K058,"330 SMITH STREET",Brooklyn,11225,BROOKLYN,40.680415,-73.994754,306,39,3000000,2147483647,77,BK0601,1900-05-23,13514,14,2,27,48
157,"P.S. 41 - BROOKLYN",K,23,"PLANYC BOILER CONVERSION / PLANYC CLIMATE CONTROL",999.999999,CIP,K041,"411 THATFORD AVENUE",Brooklyn,11225,BROOKLYN,40.660306,-73.907355,316,41,3082389,2147483647,918,BK1602,1900-05-23,17614,55,2,25,46
158,"P.S. 234 - MANHATTAN",M,2,"EXTERIOR MASONRY",999.999999,CIP,M234,"292 GREENWICH STREET",Manhattan,11225,MANHATTAN,40.716017,-74.011038,101,1,1001533,1001420001,21,MN0102,1900-05-23,11728,56,4,32,1
159,"P.S. 132 - MANHATTAN",M,6,"ELECTRICAL WORK FOR A/C INITIATIVE",999.999999,CIP,M132,"185 WADSWORTH AVENUE",Manhattan,11225,MANHATTAN,40.850626,-73.934377,112,10,1063947,1021650026,271,MN1202,1900-05-23,13091,47,4,39,22
160,"P.S. 29 - STATEN ISLAND",R,31,"FLOOD ELIMINATION / PLAYGROUNDS",999.999999,CIP,R029,"1581 VICTORY BOULEVARD","Staten Island",11225,"STATEN IS",40.613604,-74.115988,501,50,5009028,2147483647,147,SI0105,1900-05-23,10700,4,1,14,74
161,"P.S. 207 - BROOKLYN",K,22,"FY18 RESO A AUDITORIUM  UPGRADE / PATH OF TRAVEL RESO A AUDITORIUM UPGRADE",999.999999,CIP,K207,"4011 FILLMORE AVENUE",Brooklyn,11225,BROOKLYN,40.613353,-73.930129,318,46,3239388,2147483647,652,BK1802,1900-05-23,13825,5,2,8,38
162,"GROVER CLEVELAND HS - QUEENS",Q,24,"SCIENCE LAB UPGRADES",999.999999,CIP,Q485,"21-27 HIMROD STREET",Queens,11225,QUEENS,40.711033,-73.908814,405,30,4080227,2147483647,59501,QN0502,1900-05-23,15310,54,3,34,62
163,"VISTA ACADEMY - BROOKLYN",K,19,"FY20 RESO A PATH OF TRAVEL SCIENCE LAB UPGRADES / FY20 RESO A SCIENCE LAB UPGRADES",999.999999,CIP,K302,"350 LINWOOD STREET",Brooklyn,11225,BROOKLYN,40.677104,-73.883433,305,37,3088357,2147483647,1170,BK0501,1900-05-23,17215,45,2,37,47
164,"EAST SIDE COMMUNITY SCHOOL",M,1,"COVID VENTILATION",999.999999,CIP,M060,"420 EAST 12 STREET",Manhattan,11225,MANHATTAN,40.729589,-73.982555,103,2,1005974,1004390017,34,MN0303,1900-05-23,11729,70,4,50,5
165,"I.S. @ 650 86TH STREET - BROOKLYN",K,20,New,999.999999,CAP,K322,"650  86TH STREET",Brooklyn,11228,BROOKLYN,40.618851,-74.021875,310,50,3153881,2147483647,152,BK1001,1900-05-23,13511,10,2,44,41
166,"P.S. 104 - QUEENS",Q,27,"DOWNTOWN FAR ROCKAWAY REZONING PARK UPGRADES",999.999999,CIP,Q104,"26-01 MOTT AVENUE",Queens,11225,QUEENS,40.608467,-73.764548,414,31,4442313,2147483647,100801,QN1401,1900-05-23,20529,51,3,47,59
167,"K721 SPED - BROOKLYN",K,21,"LSP- INTERIOR SPACES",999.999999,CIP,K722,"64 AVENUE X",Brooklyn,11225,BROOKLYN,40.589317,-73.981310,313,47,3385667,2147483647,308,BK1301,1900-05-23,18183,21,2,45,35
168,"P.S. 85 ANNEX - QUEENS",Q,30,New,999.999999,CAP,Q489,"23-35 29 STREET",Queens,11105,QUEENS,40.774348,-73.914710,401,22,0,0,115,QN0101,1900-05-23,16862,39,3,4,72
169,"Q075 SPED - QUEENS",Q,24,"EXTERIOR MASONRY / FLOOD ELIMINATION / PARAPETS / ROOFS / WINDOWS",999.999999,CIP,Q075,"16-66 HANCOCK STREET",Queens,11225,QUEENS,40.698476,-73.905556,405,34,4085584,2147483647,553,QN0502,1900-05-23,15310,54,3,30,62
170,"3K CENTER @ 2659 WEBSTER AVENUE - BRONX",X,10,Lease,999.999999,CAP,X491,"2659 WEBSTER AVENUE",Bronx,10458,BRONX,40.863677,-73.888796,207,15,2016370,2032770032,397,BX0603,1900-05-23,10936,24,5,22,34
171,"LONG ISLAND CITY HS - Q",Q,30,"CRACKED PARAPETS / EXTERIOR MASONRY / FLOOD ELIMINATION / ROOFS",999.999999,CIP,Q452,"14-30 BROADWAY",Queens,11225,QUEENS,40.765826,-73.932800,401,22,4467709,2147483647,45,QN0105,1900-05-23,16863,39,3,4,72
172,"EAST NEW YORK ELEMENTARY SCHOOL OF EXCELLENCE  -K",K,19,"ELECTRICAL WORK FOR A/C INITIATIVE",999.999999,CIP,K072,"605 SHEPHERD AVENUE",Brooklyn,11225,BROOKLYN,40.669387,-73.879614,305,42,3090219,2147483647,1164,BK0502,1900-05-23,17215,45,2,25,47
173,"P.S. 115 - BROOKLYN",K,18,"EXTERIOR MASONRY / FLOOD ELIMINATION / PARAPETS / ROOFS",999.999999,CIP,K115,"1500 EAST 92 STREET",Brooklyn,11225,BROOKLYN,40.635015,-73.897262,318,46,3232559,2147483647,1008,BK1803,1900-05-23,13827,5,2,8,42
174,"P.S. 84 - MANHATTAN",M,3,"FY18 RESO A PLAYGROUND UPGRADE",999.999999,CIP,M084,"32 WEST 92 STREET",Manhattan,11225,MANHATTAN,40.789526,-73.967574,107,6,1081042,1012050006,177,MN0702,1900-05-23,12422,20,4,19,15
175,"P.S. 28 - QUEENS",Q,24,"LSP- DOMESTIC WATER HEATER",999.999999,CIP,Q028,"109-10 47TH AVENUE",Queens,11225,QUEENS,40.747126,-73.854824,404,21,4529578,2147483647,415,QN0402,1900-05-23,14510,66,3,21,68
176,"P.S. 197 - QUEENS",Q,27,"IPDVS CAMERA INSTALLATION",999.999999,CIP,Q197,"825 HICKSVILLE ROAD",Queens,11225,QUEENS,40.600199,-73.743968,414,31,4298856,2147483647,101002,QN1401,1900-05-23,20529,51,3,47,59
177,"FOREST HILLS HS - QUEENS",Q,28,"WATER INFILTRATION AT CHIMNEY",999.999999,CIP,Q440,"67-01 110 STREET",Queens,11225,QUEENS,40.729402,-73.845637,406,29,4052143,2147483647,747,QN0602,1900-05-23,14786,40,3,28,70
178,"P.S. 197 - MANHATTAN",M,5,"ELECTRICAL WORK FOR A/C INITIATIVE",999.999999,CIP,M197,"2230 5TH AVENUE",Manhattan,11225,MANHATTAN,40.813184,-73.937322,110,9,1076433,1017330017,212,MN1002,1900-05-23,13095,18,4,36,20
179,"P.S. 59 - MANHATTAN",M,2,"FY20 RESO A GREENROOF",999.999999,CIP,M488,"231-249 EAST 56 STREET",Manhattan,11225,MANHATTAN,40.759249,-73.967221,106,4,1088892,1013300013,10803,MN0604,1900-05-23,12419,71,4,51,9
180,"P.S. 193 - BROOKLYN",K,22,"RPZ BACKFLOW PREVENTION DEVICES",999.999999,CIP,K193,"2515 AVENUE L",Brooklyn,11225,BROOKLYN,40.621507,-73.950473,314,45,3208461,2147483647,754,BK1403,1900-05-23,17217,60,2,26,43
181,"Q256 SPED - QUEENS",Q,27,"PHASE III  WORK- DEMO AND PLAYGROUND REDEVELOPMENT",999.999999,CIP,Q816,"445 BEACH 135 STREET",Queens,11225,QUEENS,40.577026,-73.854539,414,32,4305631,2147483647,928,QN1403,1900-05-23,20532,51,3,41,58
182,"HS FOR HEALTH CAREER & SCIENCE - M",M,6,"EXTERIOR MASONRY / PARAPETS / ROOFS / WINDOWS",999.999999,CIP,M465,"549 AUDUBON AVENUE",Manhattan,11225,MANHATTAN,40.855855,-73.927120,112,10,1076751,1021600018,277,MN1202,1900-05-23,13098,47,4,39,22
183,"P.S. 144 - QUEENS",Q,28,"RESO A LIBRARY UPGRADE",999.999999,CIP,Q144,"69-20 JUNO STREET",Queens,11225,QUEENS,40.715281,-73.852412,406,29,4614902,2147483647,729,QN0602,1900-05-23,14786,40,3,28,70
184,"I.S. 98 - BRONX",X,12,"EXTERIOR MASONRY / FLOOD ELIMINATION / PARAPETS / ROOFS",999.999999,CIP,X098,"1619 BOSTON ROAD",Bronx,11225,BRONX,40.835900,-73.890458,203,15,2009867,2029390093,155,BX0303,1900-05-23,11269,34,5,43,25
185,"P.S. 60 - STATEN ISLAND",R,31,"LSP REPLACE UNIVENTS",999.999999,CIP,R060,"55 MERRILL AVENUE","Staten Island",11225,"STATEN IS",40.610073,-74.162129,502,50,5031151,2147483647,29104,SI0204,1900-05-23,10700,30,1,14,75
186,"P.S. 200 - BROOKLYN",K,20,"EXTERIOR MASONRY / PARAPETS / ROOFS",999.999999,CIP,K200,"1940 BENSON AVENUE",Brooklyn,11225,BROOKLYN,40.603188,-74.001408,311,38,3167818,2147483647,282,BK1102,1900-05-23,17616,1,2,44,37
187,"H.S. 745 - BROOKLYN",K,17,"EXTERIOR MASONRY / PARAPETS / ROOFS / WINDOWS",999.999999,CIP,K470,"600 KINGSTON AVENUE",Brooklyn,11225,BROOKLYN,40.658893,-73.942458,309,40,3107227,2147483647,810,BK0902,1900-05-23,16866,17,2,11,44
188,"P.S. 209 - QUEENS",Q,25,"FY22 RESO A AUDITORIUM UPGRADE",999.999999,CIP,Q209,"16-10 UTOPIA PARKWAY",Queens,11225,QUEENS,40.783608,-73.794654,407,19,4128717,2147483647,1017,QN0703,1900-05-23,14192,22,3,20,67
189,"I.S. 221 - BRONX",X,7,"LOW-VOLTAGE ELECTRICAL / PLANYC BOILER CONVERSION / PLANYC CLIMATE CONTROL",999.999999,CIP,X149,"360 EAST 145 STREET",Bronx,11225,BRONX,40.813785,-73.920320,201,8,2097038,2023060054,43,BX0101,1900-05-23,10933,49,5,35,23
190,"3K CENTER @ 47-09 36TH STREET - QUEENS",Q,24,Lease,999.999999,CAP,Q503,"47-09 36TH STREET",Queens,11101,QUEENS,40.741953,-73.929363,402,26,4003266,2147483647,189,QN0202,1900-05-23,16858,53,3,33,66
191,"I.S. 255 - MANHATTAN",M,2,"FY20 RESO A ACCESSIBILITY",999.999999,CIP,M040,"320 EAST 20 STREET",Manhattan,11225,MANHATTAN,40.735751,-73.981655,106,2,1020513,1009250012,64,MN0602,1900-05-23,12073,71,4,50,7
192,"I.S. 75 - STATEN ISLAND",R,31,"EXTERIOR MASONRY / FLOOD ELIMINATION / FY17 RESO A GREENHOUSE / FY20 RESO A PLAYGROUND UPGRADE / PARAPETS / PAVED AREAS- CONCRETE / ROOFS / WINDOWS",999.999999,CIP,R075,"455 HUGUENOT AVENUE","Staten Island",11225,"STATEN IS",40.544380,-74.197897,503,51,5079651,2147483647,17014,SI0303,1900-05-23,10699,15,1,9,77
193,"P.S. 345 - BROOKLYN",K,19,"PLANYC BOILER CONVERSION / PLANYC CLIMATE CONTROL",999.999999,CIP,K345,"111 BERRIMAN STREET",Brooklyn,11225,BROOKLYN,40.676129,-73.880337,305,37,3088734,2147483647,1192,BK0502,1900-05-23,17215,45,2,37,47
194,"P.S. 108 - QUEENS",Q,27,"EXTERIOR MASONRY / FLOOD ELIMINATION / PARAPETS / ROOFS / WINDOWS",999.999999,CIP,Q108,"108-10 109 AVENUE",Queens,11225,QUEENS,40.679584,-73.831547,410,28,4247572,2147483647,96,QN1001,1900-05-23,24016,62,3,46,64
195,"P.S. 63 - QUEENS",Q,27,"RTU REPLACEMENT",999.999999,CIP,Q063,"90-15 SUTTER AVENUE",Queens,11225,QUEENS,40.676410,-73.846773,410,32,4190727,2147483647,54,QN1002,1900-05-23,24013,62,3,41,64
196,"NEW BRIDGES",K,17,"COVID VENTILATION",999.999999,CIP,K167,"1025 EASTERN PARKWAY",Brooklyn,11225,BROOKLYN,40.669001,-73.934635,308,35,3037303,2147483647,35301,BK0802,1900-05-23,17615,16,2,48,49
197,"J.H.S. 189 - QUEENS",Q,25,"LOW VOLTAGE ELECTRICAL SYSTEM",999.999999,CIP,Q189,"144-80 BARCLAY AVENUE",Queens,11225,QUEENS,40.759844,-73.820548,407,20,4114763,2147483647,863,QN0704,1900-05-23,14190,22,3,3,67
198,"P.S. 138 - BROOKLYN",K,17,"RPZ VALVES",999.999999,CIP,K138,"760 PROSPECT PLACE",Brooklyn,11225,BROOKLYN,40.674380,-73.951443,308,36,3330794,2147483647,31701,BK0802,1900-05-23,17618,16,2,49,49
199,"FREDERICK DOUGLASS ACADEMY III SECONDARY SCHOOL",X,9,"FLOOD ELIMINATION",999.999999,CIP,X148,"3630 THIRD AVENUE",Bronx,11225,BRONX,40.833511,-73.904490,203,16,2009611,2029250001,14701,BX0302,1900-05-23,10934,34,5,42,25
200,"P.S. 5 - STATEN ISLAND",R,31,Demo,999.999999,CAP,R005,"348 DEISIUS STREET","Staten Is",10312,"STATEN IS",40.530169,-74.187635,503,51,5082407,2147483647,176,SI0304,1900-05-23,10699,15,1,9,77
201,"P.S. 312 - BROOKLYN",K,22,"FY16 RESO A LEARNING GARDEN",999.999999,CIP,K342,"1415 EAST 71 STREET",Brooklyn,11225,BROOKLYN,40.622699,-73.910624,318,46,3000000,2147483647,69602,BK1802,1900-05-23,13825,5,2,8,38
202,"3K CENTER @ 841 FATHER CAPODANNO BOULEVARD - STATEN ISLAND",R,31,Lease,0.000000,CAP,R113,"841 FATHER CAPODANNO BOULEVARD","Staten Is",10305,"STATEN IS",40.575493,-74.083510,502,50,5110732,2147483647,11201,SI0202,1900-05-23,10692,30,1,14,76
203,"P.S. 754 SPED - BRONX",X,7,"IPDVS CAMERA INSTALLATION",999.999999,CIP,X155,"470 JACKSON AVENUE",Bronx,11225,BRONX,40.811162,-73.909804,201,8,2003910,2025780027,35,BX0101,1900-05-23,10933,49,5,35,23
204,"NEW MILLENNIUM BRONX ACADEMY OF THE ARTS - BRONX",X,9,"ELECTRICAL WORK FOR A/C INITIATIVE / LSP LL26 CODE COMPLIANCE/EXIT SIGN REPLACEMENT",999.999999,CIP,X145,"1000 TELLER AVENUE",Bronx,11225,BRONX,40.827941,-73.914374,204,16,2097111,2024240001,173,BX0401,1900-05-23,10934,50,5,42,27
205,"P.S. 90 - BROOKLYN",K,21,"FY20 RESO A ROOM RENOVATION",999.999999,CIP,K090,"2840 WEST 12 STREET",Brooklyn,11225,BROOKLYN,40.578255,-73.979628,313,47,3196558,2147483647,350,BK1302,1900-05-23,18184,21,2,45,35
206,"P.S. 193 - BROOKLYN",K,22,"LSP PVI DOMESTIC WATER HEATER",999.999999,CIP,K193,"2515 AVENUE L",Brooklyn,11225,BROOKLYN,40.621507,-73.950473,314,45,3208461,2147483647,754,BK1403,1900-05-23,17217,60,2,26,43
207,"P.S. 183 - QUEENS",Q,27,"FY22 RESO A AUDITORIUM UPGRADE",999.999999,CIP,Q183,"2-45 BEACH 79 STREET",Queens,11225,QUEENS,40.589508,-73.805361,414,31,4303354,2147483647,94202,QN1402,1900-05-23,20531,51,3,47,58
208,"P.S. 239 - QUEENS",Q,24,"LSP DOMESTIC WATER HEATER",999.999999,CIP,Q239,"17-15 WEIRFIELD STREET",Queens,11225,QUEENS,40.699149,-73.903799,405,34,4435561,2147483647,553,QN0502,1900-05-23,15310,54,3,30,62
209,"Q811 SPED - QUEENS",Q,26,"PLANYC BOILER CONVERSION / PLANYC CLIMATE CONTROL",999.999999,CIP,Q811,"61-25 MARATHON PARKWAY",Queens,11225,QUEENS,40.756778,-73.729487,411,23,4173060,2147483647,152902,QN1103,1900-05-23,14197,26,3,16,69
210,"PORT RICHMOND HS - R",R,31,"ATHLETIC FIELD",999.999999,CIP,R446,"39 INNIS STREET","Staten Island",11225,"STATEN IS",40.633704,-74.142364,501,49,5026076,2147483647,213,SI0106,1900-05-23,10370,4,1,13,75
211,"P.S. 26 - QUEENS",Q,26,Addition,999.999999,CAP,Q026,"195-02 69 AVENUE",Queens,11365,QUEENS,40.736922,-73.777990,408,23,4153296,2147483647,134702,QN0803,1900-05-23,14507,25,3,16,65
212,"BRONX LAB SCHOOL - BRONX",X,11,"COVID VENTILATION",999.999999,CIP,X425,"800 EAST GUN HILL ROAD",Bronx,11225,BRONX,40.875953,-73.861970,212,12,2057045,2046330040,372,BX1201,1900-05-23,11605,29,5,2,30
213,"P.S. 108 - QUEENS",Q,27,"LSP DOMESTIC WATER HEATER",999.999999,CIP,Q108,"108-10 109 AVENUE",Queens,11225,QUEENS,40.679584,-73.831547,410,28,4247572,2147483647,96,QN1001,1900-05-23,24016,62,3,46,64
214,"P.S. 169 - QUEENS",Q,25,Addition,999.999999,CAP,Q169,"18-25 212 STREET",Queens,11360,QUEENS,40.782248,-73.779063,407,19,4131147,2147483647,99704,QN0703,1900-05-23,14195,22,3,20,67
215,"P.S. 94 - BRONX",X,10,"COVID VENTILATION",999.999999,CIP,X361,"268 EAST 211 STREET",Bronx,11225,BRONX,40.881564,-73.874800,207,11,2115241,2033560036,43102,BX0703,1900-05-23,11605,24,5,40,34
216,"P.S. 36 - BRONX",X,8,"FY19 RESO A AUDITORIUM UPGRADE",999.999999,CIP,X036,"1070 CASTLE HILL AVENUE",Bronx,11225,BRONX,40.829344,-73.850428,209,18,2026706,2038170001,78,BX0903,1900-05-23,11610,58,5,31,26
217,"FAIRMONT NEIGHBORHOOD SCHOOL",X,12,"IPDVS CAMERA INSTALLATION",999.999999,CIP,X050,"1550 VYSE AVENUE",Bronx,11225,BRONX,40.834157,-73.887512,203,17,2010786,2029960010,157,BX0303,1900-05-23,11269,34,5,43,25
218,"P.S. @ 1302 EDWARD L GRANT HIGHWAY - BRONX",X,9,New,999.999999,CAP,X468,"1302 EDWARD L GRANT HIGHWAY",Bronx,10452,BRONX,40.838744,-73.921721,204,16,2000000,2028710061,219,BX0403,1900-05-23,10930,50,5,42,27
219,"I.S. 202 - QUEENS",Q,27,"PLANYC BOILER CONVERSION / PLANYC CLIMATE CONTROL",999.999999,CIP,Q202,"138-30 LAFAYETTE STREET",Queens,11225,QUEENS,40.671240,-73.845141,410,32,4245993,2147483647,58,QN1002,1900-05-23,24013,62,3,41,64
220,"P.S. 31 - QUEENS",Q,26,"CHIMNEY LINER REPLACEMENT / EXTERIOR MASONRY / PARAPETS / PLANYC BOILER CONVERSION / PLANYC CLIMATE CONTROL / REINFORCING SUPPORT ELEMENTS / ROOFS",999.999999,CIP,Q031,"211-45 46 ROAD",Queens,11225,QUEENS,40.757064,-73.770122,411,19,4156949,2147483647,1447,QN1102,1900-05-23,14196,26,3,20,69
221,"BERGTRAUM HS - MANHATTAN",M,2,"LSP- CEILING AND LIGHTING UPGRADE",999.999999,CIP,M520,"411 PEARL STREET",Manhattan,11225,MANHATTAN,40.711442,-74.000851,101,1,1001388,1001130100,2901,MN0102,1900-05-23,13096,56,4,32,2
222,"HS FOR HEALTH CAREER & SCIENCE - M",M,6,"CAFETERIA CHILLER",999.999999,CIP,M465,"549 AUDUBON AVENUE",Manhattan,11225,MANHATTAN,40.855855,-73.927120,112,10,1076751,1021600018,277,MN1202,1900-05-23,13098,47,4,39,22
223,"P.S. 123 - QUEENS",Q,27,"TCU REMOVAL & PLAYGROUND REDEVELOPMENT",999.999999,CIP,Q123,"145-01 119 AVENUE",Queens,11225,QUEENS,40.678296,-73.795620,412,28,4260828,2147483647,18402,QN1203,1900-05-23,24671,41,3,46,71
224,"P.S. 48 - BROOKLYN",K,20,"PATH OF TRAVEL PLAYGROUND UPGRADE / PLAYGROUNDS",999.999999,CIP,K048,"6015 18 AVENUE",Brooklyn,11225,BROOKLYN,40.621871,-73.987396,312,44,3132140,2147483647,244,BK1204,1900-05-23,16867,2,2,18,39
225,"P.S. 112 - QUEENS",Q,30,"FY17 RESO A PLAYGROUND REDEVELOPMENT",999.999999,CIP,Q112,"25-05 37 AVENUE",Queens,11225,QUEENS,40.756891,-73.934523,401,26,4004170,2147483647,3302,QN0105,1900-05-23,16863,39,3,33,72
226,"P.S. 145 - BROOKLYN",K,32,"EXTERIOR MASONRY / ROOFS / WATER INFILTRATION / WINDOWS",999.999999,CIP,K145,"100 NOLL STREET",Brooklyn,11225,BROOKLYN,40.701621,-73.932410,304,34,3071915,2147483647,425,BK0401,1900-05-23,17213,42,2,30,53
227,"3K CENTER @ 98-05 63RD DRIVE - QUEENS",Q,28,Lease,999.999999,CAP,Q365,"98-05 63RD DRIVE",Queens,11374,QUEENS,40.731041,-73.858586,406,24,4050501,2147483647,71701,QN0601,1900-05-23,14785,40,3,28,70
228,"P.S. 232 - QUEENS",Q,27,"EXTERIOR MASONRY / LOW-VOLTAGE ELECTRICAL SYSTEM / PLANYC BOILER / PLANYC CLIMATE CONTROL / WATER INILTRATION",999.999999,CIP,Q232,"153-23 83 STREET",Queens,11225,QUEENS,40.665909,-73.851216,410,32,4247454,2147483647,6202,QN1003,1900-05-23,15314,62,3,41,64
229,"MIDWOOD HS - BROOKLYN",K,22,"ELECTRICAL WORK FOR A/C INITIATIVE",999.999999,CIP,K405,"2839 BEDFORD AVENUE",Brooklyn,11225,BROOKLYN,40.633237,-73.952929,314,45,3205788,2147483647,772,BK1401,1900-05-23,17217,60,2,26,43
230,"I.S. 61 - STATEN ISLAND",R,31,"EXTERIOR MASONRY / PARAPETS / ROOFS / WINDOWS",999.999999,CIP,R061,"445 CASTLETON AVENUE","Staten Island",11225,"STATEN IS",40.634009,-74.097826,501,49,5002227,2147483647,67,SI0104,1900-05-23,10369,4,1,13,74
231,"I.S. 302 - BRONX",X,8,"FY18 RESO A PLAYGROUNDS",999.999999,CIP,X052,"681 KELLY STREET",Bronx,11225,BRONX,40.815429,-73.902139,202,17,2005133,2026860020,83,BX0202,1900-05-23,10933,8,5,43,24
232,"P.S. 18 - STATEN ISLAND",R,31,"EXTERIOR MASONRY / FLOOD ELIMINATION / ROOFS",999.999999,CIP,R018,"221 BROADWAY","Staten Island",11225,"STATEN IS",40.636587,-74.117509,501,49,5004877,2147483647,105,SI0104,1900-05-23,10697,4,1,13,74
233,"P.S. 91 - QUEENS",Q,24,"FY20 RESO A SUPPLEMENTAL COOLING",999.999999,CIP,Q091,"68-10 CENTRAL AVENUE",Queens,11225,QUEENS,40.703885,-73.884161,405,32,4089566,2147483647,625,QN0503,1900-05-23,15310,54,3,34,62
234,"P.S. 375 - BROOKLYN",K,17,"PLANYC BOILER CONVERSION / PLANYC CLIMATE CONTROL",999.999999,CIP,K320,"46 MCKEEVER PLACE",Brooklyn,11225,BROOKLYN,40.665021,-73.959034,309,35,3034356,2147483647,325,BK0901,1900-05-23,13509,17,2,48,44
235,"P.S. 185 - MANHATTAN",M,3,"IPDVS FULL CAMERA UPGRADE / IPDVS INSTALLATION",999.999999,CIP,M185,"20 WEST 112 STREET",Manhattan,11225,MANHATTAN,40.798511,-73.949251,110,9,1051410,1015950015,186,MN1001,1900-05-23,12423,18,4,36,18
236,"P.S. 38 - QUEENS",Q,29,"EXTERIOR MASONRY / FLOOD ELIMINATION / HVAC / CLASSROOM AIR HANDLING UNITS / PARAPETS / ROOFS / WINDOWS",999.999999,CIP,Q038,"135-21 241 STREET",Queens,11225,QUEENS,40.671561,-73.734043,413,31,4284236,2147483647,638,QN1307,1900-05-23,24018,63,3,47,63
237,"TOTTENVILLE HS - STATEN ISLAND",R,31,"PLANYC BOILER CONVERSION / PLANYC CLIMATE CONTROL / WATER INFILTRATION IN OIL TANK ROOM",999.999999,CIP,R455,"100 LUTEN AVENUE","Staten Island",11225,"STATEN IS",40.528092,-74.192032,503,51,5082634,2147483647,198,SI0304,1900-05-23,10699,15,1,9,77
238,"P.S. 133 - MANHATTAN",M,5,"EXTERIOR MASONRY / PARAPETS / ROOFS",999.999999,CIP,M133,"2121 5TH AVENUE",Manhattan,11225,MANHATTAN,40.809672,-73.939872,111,9,1054276,1017550001,206,MN1102,1900-05-23,13095,7,4,36,16
239,"I.S. 5 - QUEENS",Q,24,"HVAC / PUBLIC ADDRESS SYSTEM",999.999999,CIP,Q005,"50-40 JACOBUS STREET",Queens,11225,QUEENS,40.737718,-73.887429,404,30,4454423,2147483647,489,QN0203,1900-05-23,14784,66,3,5,68
240,"HERBERT H. LEHMAN HS - X",X,8,"AUDITORIUM UP0GRADE",999.999999,CIP,X405,"3000 EAST TREMONT AVENUE",Bronx,11225,BRONX,40.840733,-73.838685,210,13,2074045,2053680001,194,BX1002,1900-05-23,11270,43,5,12,28
241,"P.S. 126 - MANHATTAN",M,2,"EXTERIOR MASONRY / PARAPETS / ROOFS / WINDOWS",999.999999,CIP,M126,"80 CATHERINE STREET",Manhattan,11225,MANHATTAN,40.710729,-73.996631,103,1,1083357,1001110160,25,MN0301,1900-05-23,13096,70,4,32,2
242,"HS FOR CONST.TRADES,ENGG.,& ARCH-Q",Q,27,"FY19 RESO A AUDITORIUM UPGRADE",999.999999,CIP,Q650,"94-06 104 STREET",Queens,11225,QUEENS,40.689591,-73.840717,409,29,4438609,2147483647,114,QN0904,1900-05-23,24012,46,3,46,60
243,"P.S. 166 - QUEENS",Q,30,"LSP- DOMESTIC WATER HEATER",999.999999,CIP,Q166,"33-09 35 AVENUE",Queens,11225,QUEENS,40.757309,-73.926733,401,26,4008220,2147483647,57,QN0103,1900-05-23,16863,39,3,33,72
244,"HOSTOS-LINCOLN ACADEMY OF SCIENCE",X,7,"LSP LL26 CODE COMPLIANCE/EXIT SIGN REPLACEMENT",999.999999,CIP,X162,"600 ST ANNS AVENUE",Bronx,11225,BRONX,40.815525,-73.912226,201,17,2004314,2026160001,73,BX0102,1900-05-23,10933,49,5,43,23
245,"P.S. 42 - QUEENS",Q,27,"ELECTRICAL LIGHTING FIXTURES / NON SANDY CLIMATE CONTROL / SANDY - HEATING PLANT / SANDY- ELECTRICAL SYSTEMS / SANDY- FLOOD ELIMINATION / SANDY- HVAC / SANDY- INTERIOR SPACES / SANDY- SANITARY / STORM PIPING",999.999999,CIP,Q042,"488 BEACH 66 STREET",Queens,11225,QUEENS,40.594538,-73.795304,414,31,4302817,2147483647,964,QN1402,1900-05-23,20530,51,3,47,58
246,"P.S. 81 - BRONX",X,10,"FY20 RESO A IPDVS CAMERA INSTALLATION",999.999999,CIP,X081,"5550 RIVERDALE AVENUE",Bronx,11225,BRONX,40.903553,-73.905229,208,11,2084806,2058501550,337,BX0803,1900-05-23,11609,48,5,40,33
247,"P.S. 219 - QUEENS",Q,25,"RTU / HVAC REPLACEMENT",999.999999,CIP,Q219,"144-39 GRAVETT ROAD",Queens,11225,QUEENS,40.735277,-73.823749,408,24,4448708,2147483647,809,QN0801,1900-05-23,14509,25,3,24,65
248,"3K CENTER @ 36-31 38TH STREET - QUEENS",Q,30,Lease,999.999999,CAP,Q447,"36-31 38TH STREET",Queens,11101,QUEENS,40.753292,-73.924684,401,26,4314400,2147483647,157,QN0104,1900-05-23,16858,39,3,33,72
249,"P.S. 188 - BROOKLYN",K,21,"FY21 RESO A AUDITORIUM UPGRADE",999.999999,CIP,K188,"3314 NEPTUNE AVENUE",Brooklyn,11225,BROOKLYN,40.577217,-74.000194,313,47,3188726,2147483647,328,BK1302,1900-05-23,18184,21,2,45,35
250,"P.S. 96 - QUEENS",Q,27,"EXISTING BUILDING RENOVATION WORK / EXISTING BUILDING-AUDITORIUM / EXISTING BUILDING-CAFETERIA",999.999999,CIP,Q096,"130-01 ROCKAWAY BOULEVARD",Queens,11225,QUEENS,40.674991,-73.808371,410,28,4253028,2147483647,180,QN1001,1900-05-23,24016,62,3,46,64
251,"P.S. 47 - QUEENS",Q,27,New,999.999999,CAP,Q343,"9 POWER ROAD",Queens,11693,QUEENS,40.606353,-73.820445,414,32,4448968,2147483647,107201,QN1403,1900-05-23,20531,51,3,41,58
252,"BROOKLYN INTERNATIONAL HS - K",K,13,"LSP VACUUM PUMP SET REPLACEMENT",999.999999,CIP,K805,"49 FLATBUSH AVENUE EXTENSION",Brooklyn,11225,BROOKLYN,40.697339,-73.985016,302,33,3000216,2147483647,1501,BK0202,1900-05-23,16865,68,2,38,54
253,"I.S. 232 - BRONX",X,9,"IPDVS CAMERA INSTALLATION",999.999999,CIP,X082,"1700 MACOMBS ROAD",Bronx,11225,BRONX,40.849532,-73.916077,205,14,2008460,2028660070,21502,BX0501,1900-05-23,10931,6,5,29,29
254,"P.S. 4 - STATEN ISLAND",R,31,"COVID VENTILATION",999.999999,CIP,R004,"200 NEDRA LANE","Staten Island",11225,"STATEN IS",40.552975,-74.194597,503,51,5079499,2147483647,17013,SI0303,1900-05-23,10699,15,1,9,77
255,"P.S. 110 - BRONX",X,9,"PLANYC BOILER CONVERSION / PLANYC CLIMATE CONTROL",999.999999,CIP,X110,"580 CROTONA PARK SOUTH",Bronx,11225,BRONX,40.835286,-73.900751,203,15,2009718,2029320001,149,BX0301,1900-05-23,10934,34,5,42,25
256,"ALC-JANE ADDAMS HS",X,8,"IPDVS CAMERA INSTALLATION",999.999999,CIP,X650,"900 TINTON AVENUE",Bronx,11225,BRONX,40.821675,-73.903546,203,17,2004807,2026680001,133,BX0301,1900-05-23,10934,34,5,43,25
257,"BERGTRAUM HS - MANHATTAN",M,2,"AUDITORIUM CEILING REPLACEMENT / VENTILATION @ M520",999.999999,CIP,M520,"411 PEARL STREET",Manhattan,11225,MANHATTAN,40.711442,-74.000851,101,1,1001388,1001130100,2901,MN0102,1900-05-23,13096,56,4,32,2
258,"P.S. 30 - BRONX",X,7,"EXTERIOR MASONRY / PARAPETS / ROOFS",999.999999,CIP,X030,"510 EAST 141 STREET",Bronx,11225,BRONX,40.809370,-73.917584,201,8,2000077,2022670015,39,BX0101,1900-05-23,10932,49,5,35,23
259,"THE INTERNATIONAL HS - BROOKLYN",K,17,"LSP STAGE RIGGING / STRUCTURAL STEEL",999.999999,CIP,K440,"883 CLASSON AVENUE",Brooklyn,11225,BROOKLYN,40.670349,-73.961695,309,35,3029686,2147483647,213,BK0901,1900-05-23,13509,17,2,48,44
260,"P.S. 159 - QUEENS",Q,26,PLAYGROUND,999.999999,CIP,Q159,"205-01 33 AVENUE",Queens,11225,QUEENS,40.769360,-73.783943,411,19,4134525,2147483647,1099,QN1101,1900-05-23,14196,26,3,20,69
261,"P.S. 241 - BROOKLYN",K,17,"BACKFLOW PREVENTION DEVICES / RPZ BACKFLOW PREVENTION / RPZ BACKFLOW PREVENTION DEVICES",999.999999,CIP,K840,"976 PRESIDENT STREET",Brooklyn,11225,BROOKLYN,40.669361,-73.960769,309,35,3378160,2147483647,213,BK0901,1900-05-23,13509,17,2,48,44
262,"P.S. 36 - QUEENS",Q,29,"EXTERIOR MASONRY / PARAPETS / ROOFS",999.999999,CIP,Q036,"187-01 FOCH BOULEVARD",Queens,11225,QUEENS,40.690828,-73.763907,412,27,4268900,2147483647,366,QN1205,1900-05-23,15312,41,3,6,71
263,"P.S. 91 - QUEENS",Q,24,"EXTERIOR MASONRY / PARAPETS / ROOFS",999.999999,CIP,Q091,"68-10 CENTRAL AVENUE",Queens,11225,QUEENS,40.703885,-73.884161,405,32,4089566,2147483647,625,QN0503,1900-05-23,15310,54,3,34,62
264,"P.S. 58 - QUEENS",Q,24,"PARAPETS / ROOFS",999.999999,CIP,Q058,"72-24 GRAND AVENUE",Queens,11225,QUEENS,40.728735,-73.890699,405,30,4607309,2147483647,49302,QN0501,1900-05-23,14788,54,3,34,62
265,"BX ENGINEERING & TECH ACADEMY - X",X,10,"TENNIS COURT REMEDIATION",999.999999,CIP,X476,"99 TERRACE VIEW AVENUE",Bronx,11225,BRONX,40.877105,-73.912256,208,10,1064532,1022150080,309,BX0802,1900-05-23,11272,48,4,39,33
266,"P.S. 9 - BRONX",X,10,"CRACKED MASONRY / PARAPETS / ROOF / ROOFS",999.999999,CIP,X930,"230 EAST 183 STREET",Bronx,11225,BRONX,40.857067,-73.898936,205,15,2013561,2031500010,38301,BX0503,1900-05-23,10935,6,5,22,29
267,"P.S. 92 - QUEENS",Q,30,"RPZ BACKFLOW PREVENTION DEVICES",999.999999,CIP,Q292,"99-01 34TH AVENUE",Queens,11225,QUEENS,40.755418,-73.869017,403,21,4042496,2147483647,377,QN0303,1900-05-23,14510,65,3,21,73
268,"P.S. 162 - QUEENS",Q,26,"FY21 RESO A GYMNASIUM UPGRADE",999.999999,CIP,Q162,"201-02 53 AVENUE",Queens,11225,QUEENS,40.749036,-73.777213,411,20,4159363,2147483647,140901,QN1101,1900-05-23,14506,26,3,3,69
269,"P.S. 179 - BROOKLYN",K,20,"PATH OF TRAVEL TCU REMOVAL / PLAYGROUND REDEVELOPMENT / TCU REMOVAL/PLAYGROUND REDEVELOPMENT",999.999999,CIP,K179,"202 AVENUE C",Brooklyn,11225,BROOKLYN,40.640463,-73.977642,312,39,3126001,2147483647,488,BK1203,1900-05-23,17620,2,2,27,39
270,"P.S. 196 - BRONX",X,12,"(PHASE II) EXISTING SCHOOL RENOVATION WORK",999.999999,CIP,X077,"1250 WARD AVENUE",Bronx,11225,BRONX,40.830499,-73.877704,209,17,2000000,2037750025,54,BX0901,1900-05-23,11610,58,5,31,26
271,"P.S. 174 - QUEENS",Q,28,"EXISTING BUILDING-IPDVS",999.999999,CIP,Q174,"65-10 DIETERLE CRESCENT",Queens,11225,QUEENS,40.720924,-73.861350,406,30,4073904,2147483647,69702,QN0601,1900-05-23,14785,40,3,28,70
272,"P.S. 329 - BROOKLYN",K,21,"FY20 RESO A GYMNASIUM UPGRADE / FY20 RESO A PATH OF TRAVEL GYMNASIUM UPGRADE",999.999999,CIP,K329,"2929 WEST 30 STREET",Brooklyn,11225,BROOKLYN,40.574607,-73.996292,313,47,3189517,2147483647,342,BK1302,1900-05-23,18184,21,2,45,35
273,"BROOKLYN HIGH SCHOOL FOR LAW AND TECHNOLOGY - K",K,16,"IPDVS CAMERA INSTALLATION",999.999999,CIP,K987,"1396 BROADWAY",Brooklyn,11225,BROOKLYN,40.688831,-73.920906,303,41,3039676,2147483647,375,BK0302,1900-05-23,18181,69,2,17,52
274,"P.S. 214 - BRONX",X,12,PARAPETS,999.999999,CIP,X167,"1970 WEST FARMS ROAD",Bronx,11225,BRONX,40.839565,-73.880358,206,15,2094603,2030210038,60,BX0601,1900-05-23,11269,35,5,43,31
275,"P.S. 214 - BROOKLYN",K,19,"AUDITORIUM SEATING / FULL PROGRAM ACCESSIBILITY / LOW VOLTAGE ELECTRICAL SYSTEMS",999.999999,CIP,K214,"2944 PITKIN AVENUE",Brooklyn,11225,BROOKLYN,40.676513,-73.863151,305,37,3095254,2147483647,1202,BK0505,1900-05-23,17215,45,2,37,47
276,"P.S. 48 - BRONX",X,8,"FY15 RESO A IPDVS CAMERA INSTALLATION",999.999999,CIP,X048,"1290 SPOFFORD AVENUE",Bronx,11225,BRONX,40.814425,-73.886953,202,17,2006680,2027660001,9301,BX0201,1900-05-23,12343,8,5,43,24
277,"K371 SPED - BROOKLYN",K,15,"LL 26-EXIT SIGNS",999.999999,CIP,K371,"355 37 STREET",Brooklyn,11225,BROOKLYN,40.654293,-74.005889,307,38,3337059,2147483647,84,BK0702,1900-05-23,13515,9,2,7,45
278,"P.S. 219 - BROOKLYN",K,18,"BOILER REPLACEMENT",999.999999,CIP,K860,"9517 KINGS HIGHWAY",Brooklyn,11225,BROOKLYN,40.659110,-73.920368,317,41,3101218,2147483647,886,BK1704,1900-05-23,17614,61,2,17,40
279,"THE INTERNATIONAL HS - BROOKLYN",K,17,"IPDVS CAMERA INSTALLATION",999.999999,CIP,K440,"883 CLASSON AVENUE",Brooklyn,11225,BROOKLYN,40.670349,-73.961695,309,35,3029686,2147483647,213,BK0901,1900-05-23,13509,17,2,48,44
280,"P.S. 17 - QUEENS",Q,30,"PLANYC BOILER CONVERSION / PLANYC CLIMATE CONTROL",999.999999,CIP,Q017,"28-37 29 STREET",Queens,11225,QUEENS,40.768985,-73.922428,401,22,4007663,2147483647,71,QN0103,1900-05-23,16859,39,3,4,72
281,"FIORELLO LAGUARDIA HS - MANHATTAN",M,3,"FY15 RESO A TECHNICAL THEATER SHOP",999.999999,CIP,M485,"100 AMSTERDAM AVENUE",Manhattan,11225,MANHATTAN,40.773629,-73.985273,107,6,1030341,1011560030,15101,MN0701,1900-05-23,12420,20,4,19,12
282,"P.S. 192 - MANHATTAN",M,6,"LSP- LSP HOT WATER HEATER",999.999999,CIP,M192,"500 WEST 138 STREET",Manhattan,11225,MANHATTAN,40.820953,-73.951145,109,7,1084132,1019880166,22301,MN0902,1900-05-23,12428,37,4,23,19
283,"I.S. 217 - BRONX",X,12,"FY19 RESO A AUDITORIUM UPGRADE",999.999999,CIP,X116,"977 FOX STREET",Bronx,11225,BRONX,40.822443,-73.893902,202,17,2005660,2027140004,159,BX0202,1900-05-23,10937,8,5,43,24
284,"MATH, SCI., RESEARCH & TECH. HS-Q",Q,29,"SCIENCE LAB UPGRADES",999.999999,CIP,Q490,"207-01 116 AVENUE",Queens,11225,QUEENS,40.697819,-73.745728,413,27,4238003,2147483647,53401,QN1304,1900-05-23,15311,63,3,6,63
285,"P.S. 10 - BROOKLYN",K,15,"EXTERIOR MASONRY / FLOOD ELIMINATION / PARAPETS / ROOFS / WINDOWS",999.999999,CIP,K010,"511 7TH AVENUE",Brooklyn,11225,BROOKLYN,40.661061,-73.986534,307,39,3016509,2147483647,14902,BK0701,1900-05-23,17617,9,2,7,45
286,"WHITELAW REID ACADEMY OF ARTS AND BUSINESS - BROOK",K,16,"FY21 RESO A AUDITORIUM UPGRADE",999.999999,CIP,K057,"125 STUYVESANT AVENUE",Brooklyn,11225,BROOKLYN,40.691274,-73.933697,303,36,3043822,2147483647,291,BK0302,1900-05-23,18181,69,2,49,52
287,"P.S. 123 - QUEENS",Q,27,"LSP DOMESTIC WATER HEATER REPLACEMENT",999.999999,CIP,Q123,"145-01 119 AVENUE",Queens,11225,QUEENS,40.678296,-73.795620,412,28,4260828,2147483647,18402,QN1203,1900-05-23,24671,41,3,46,71
288,"P.S. 54 - BROOKLYN",K,13,"FLOOD ELIMINATION",999.999999,CIP,K054,"195 SANDFORD STREET",Brooklyn,11225,BROOKLYN,40.692741,-73.952981,303,33,3049020,2147483647,241,BK0301,1900-05-23,17212,69,2,38,51
289,"MIDDLE COLLEGE HIGH SCHOOL - QUEENS",Q,24,"WATER INFILTRATION",999.999999,CIP,Q520,"45-35 VAN DAM STREET",Queens,11225,QUEENS,40.744412,-73.933640,402,26,4003442,2147483647,17902,QN0202,1900-05-23,16858,53,3,33,66
290,"I.S. 73 - QUEENS",Q,24,"IPDVS CAMERA INSTALLATION",999.999999,CIP,Q073,"70-02 54 AVENUE",Queens,11225,QUEENS,40.729215,-73.893624,405,30,4058611,2147483647,49302,QN0501,1900-05-23,14788,54,3,34,62
291,"THE URBAN ASSEMBLY SCHOOL FOR GREEN CAREERS",M,3,"BACKFLOW PREVENTER & WATER METER. / HVAC (BMS) WORK",999.999999,CIP,M470,"145 WEST 84 STREET",Manhattan,11225,MANHATTAN,40.785803,-73.974614,107,6,1032128,1012150001,169,MN0702,1900-05-23,12421,20,4,19,12
292,"BROOKLYN TECH HS - K",K,13,"FY18 RESO A SCIENCE LAB UPGRADES",999.999999,CIP,K430,"29 FT GREENE PLACE",Brooklyn,11225,BROOKLYN,40.688834,-73.976905,302,35,3058752,2147483647,33,BK0203,1900-05-23,17619,68,2,48,55
293,"FORT HAMILTON HS - K",K,20,"WASTE SYSTEM",999.999999,CIP,K490,"8301 SHORE ROAD",Brooklyn,11225,BROOKLYN,40.627898,-74.039985,310,47,3152318,2147483647,46,BK1001,1900-05-23,17216,10,2,44,41
294,"HS FOR HEALTH CAREER & SCIENCE - M",M,6,"LOW VOLTAGE ELECTRICAL SYSTEM / SWIMMING POOLS",999.999999,CIP,M465,"549 AUDUBON AVENUE",Manhattan,11225,MANHATTAN,40.855855,-73.927120,112,10,1076751,1021600018,277,MN1202,1900-05-23,13098,47,4,39,22
295,"P.S./I.S. 218 - BRONX",X,9,"EXTERIOR MASONRY / FLOOD ELIMINATION / PARAPETS / ROOFS",999.999999,CIP,X235,"1220 GERARD AVENUE",Bronx,11225,BRONX,40.835847,-73.920026,204,16,2097130,2024800008,197,BX0401,1900-05-23,10930,50,5,42,27
296,"BAYSIDE HIGH SCHOOL - QUEENS",Q,26,"LSP PATH OF TRAVEL RESO A GYMNASIUM",999.999999,CIP,Q405,"32-24 CORPORAL KENNEDY STREET",Queens,11225,QUEENS,40.771755,-73.780296,411,19,4134578,2147483647,1097,QN1102,1900-05-23,14196,26,3,20,69
297,"3K CENTER @ 63-57 FRESH POND ROAD - QUEENS",Q,24,Lease,999.999999,CAP,Q366,"63-57 FRESH POND ROAD",Queens,11385,QUEENS,40.710748,-73.899573,405,30,4087482,2147483647,61301,QN0502,1900-05-23,15310,54,3,34,62
298,"P.S. 24 - QUEENS",Q,25,Addition,999.999999,CAP,Q024,"45-57 UNION STREET",Queens,11355,QUEENS,40.752070,-73.818789,407,20,4607475,2147483647,1205,QN0705,1900-05-23,14190,22,3,3,67
299,"NAPLES STREET ELEMENTARY SCHOOL - R",R,31,"EXTERIOR MASONRY / PARAPETS / PLANYC BOILER CONVERSION / PLANYC CLIMATE CONTROL / ROOFS / WATER PENETRATION IN BASEMENT",999.999999,CIP,R048,"1055 TARGEE STREET","Staten Island",11225,"STATEN IS",40.602230,-74.091355,502,50,5046419,2147483647,50,SI0201,1900-05-23,10691,30,1,14,76
300,"WILLIAM C. BRYANT HS - QUEENS",Q,30,"FY20 RESO A GYMNASIUM UPGRADE / FY20 RESO A PATH OF TRAVEL GYMNASIUM UPGRADE",999.999999,CIP,Q445,"48-10 31 AVENUE",Queens,11225,QUEENS,40.758230,-73.910514,401,26,4013655,2147483647,163,QN0104,1900-05-23,14787,39,3,33,72
301,"P.S. 333 - QUEENS",Q,27,"SANDY NEW A/C CHILLERS",999.999999,CIP,Q198,"3-65 BEACH 56 STREET",Queens,11225,QUEENS,40.593967,-73.786182,414,31,4301929,2147483647,97204,QN1402,1900-05-23,20530,51,3,47,59
302,"P.S. 268 - QUEENS",Q,29,"FY18 RESO A ROOFTOP PLAYGROUND",999.999999,CIP,Q268,"92-07 175 STREET",Queens,11225,QUEENS,40.707537,-73.785626,412,27,4217573,2147483647,444,QN1201,1900-05-23,24668,41,3,6,61
303,"PS/IS 375 - MANHATTAN",M,4,"RPZ BACKFLOW PREVENTION DEVICES",999.999999,CIP,M101,"141 EAST 111 STREET",Manhattan,11225,MANHATTAN,40.795640,-73.944410,111,8,1081346,1016390003,172,MN1101,1900-05-23,12426,7,4,35,14
304,"I.S. 443 - BROOKLYN",K,15,"LSP VACUUM PUMP REPLACEMENT",999.999999,CIP,K845,"330 18 STREET",Brooklyn,11225,BROOKLYN,40.660976,-73.988297,307,39,3331274,2147483647,147,BK0702,1900-05-23,17617,9,2,7,45
305,"3K CENTER @ 1107 EAST GUN HILL ROAD - BRONX",X,11,Lease,999.999999,CAP,X502,"1107 EAST GUN HILL ROAD",Bronx,10469,BRONX,40.873795,-73.855148,212,12,2059732,2047050020,368,BX1201,1900-05-23,11607,29,5,2,30
306,"SUCCESS ACADEMY CHARTER SCHOOL - BERGEN BEACH - NE",K,22,"EXTERIOR MASONRY / PARAPETS / ROOFS",999.999999,CIP,K864,"3109 NEWKIRK AVENUE",Brooklyn,11225,BROOKLYN,40.640066,-73.947253,317,45,3112334,2147483647,830,BK1702,1900-05-23,17217,61,2,26,40
307,"P.S. 120 - QUEENS",Q,25,"EXTERIOR DOORS / EXTERIOR MASONRY / FLOOD ELIMINATION / PARAPETS / ROOFS / RTU REPLACEMENT / WINDOWS",999.999999,CIP,Q120,"58-01 136 STREET",Queens,11225,QUEENS,40.745526,-73.829309,407,20,4139491,2147483647,80301,QN0706,1900-05-23,14190,22,3,3,67
308,"P.S. 128 - MANHATTAN",M,6,"EXTERIOR MASONRY",999.999999,CIP,M128,"560 WEST 169 STREET",Manhattan,11225,MANHATTAN,40.841359,-73.938593,112,10,1062994,1021250001,251,MN1201,1900-05-23,13090,47,4,39,21
309,"P.S. 34 - MANHATTAN",M,1,"CLIMATE CONTROL / ELECTRICAL SYSTEMS / EXTERIOR MASONRY / FLOOD ELIMINATION / HEATING PLANT / LOW VOLTAGE ELECTRICAL SYSTEM / PARAPETS / ROOFS / WINDOWS",999.999999,CIP,M034,"730 EAST 12 STREET",Manhattan,11225,MANHATTAN,40.726473,-73.975181,103,2,1004564,1003810038,28,MN0303,1900-05-23,11729,70,4,50,5
310,"P.S. @ 424 ALBEE SQUARE WEST - BROOKLYN",K,13,Lease,999.999999,CAP,K748,"424 ALBEE SQUARE WEST",Brooklyn,11201,BROOKLYN,40.691069,-73.983463,302,33,3426190,2147483647,1502,BK0202,1900-05-23,16865,68,2,38,54
311,"P.S. 177 - BROOKLYN",K,21,"LOW VOLTAGE ELECTRICAL SYSTEM",999.999999,CIP,K177,"346 AVENUE P",Brooklyn,11225,BROOKLYN,40.608604,-73.974847,311,44,3175834,2147483647,424,BK1103,1900-05-23,18183,1,2,18,37
312,"P.S. 13 - STATEN ISLAND",R,31,"EXTERIOR MASONRY / FLOOD ELIMINATION / PARAPETS / ROOFS / WINDOWS",999.999999,CIP,R013,"191 VERMONT AVENUE","Staten Island",11225,"STATEN IS",40.613216,-74.069889,501,49,5042776,2147483647,8,SI0103,1900-05-23,10692,4,1,13,74
313,"I.S. 424 - BRONX",X,8,"IPDVS CAMERA INSTALLATION",999.999999,CIP,X074,"730 BRYANT AVENUE",Bronx,11225,BRONX,40.815455,-73.885770,202,17,2006566,2027630279,11701,BX0201,1900-05-23,12343,8,5,43,24
314,"I.S. 125 - QUEENS",Q,24,"FLOORING REPLACEMENT",999.999999,CIP,Q125,"46-02 47 AVENUE",Queens,11225,QUEENS,40.741131,-73.918945,402,26,4052874,2147483647,23502,QN0202,1900-05-23,14787,53,3,33,66
315,"BROOKLYN GARDENS ELEMENTARY SCHOOL",K,19,"FY17 RESO A AUDITORIUM  UPGRADE",999.999999,CIP,K174,"574 DUMONT AVENUE",Brooklyn,11225,BROOKLYN,40.665798,-73.897723,305,42,3084617,2147483647,1130,BK0503,1900-05-23,17214,45,2,25,47
316,"P.S. 138 - BRONX",X,8,"FY20 RESO A LIBRARY UPGRADE / FY20 RESO A PATH OF TRAVEL LIBRARY UPGRADE",999.999999,CIP,X138,"2060 LAFAYETTE AVENUE",Bronx,11225,BRONX,40.822665,-73.853366,209,18,2022289,2036090016,74,BX0903,1900-05-23,11611,58,5,31,26
317,"P.S. 2 - MANHATTAN",M,2,"EXTERIOR MASONRY / PARAPETS / ROOFS / SECURITY LIGHTING / WINDOWS",999.999999,CIP,M002,"122 HENRY STREET",Manhattan,11225,MANHATTAN,40.713273,-73.991339,103,1,1003248,1002730001,6,MN0301,1900-05-23,11723,70,4,32,4
318,"P.S. 207 - QUEENS",Q,27,"FY21 RESO A AUDITORIUM UPGRADE / PATH OF TRAVEL  RESO A AUDITORIUM UPGRADE",999.999999,CIP,Q207,"159-15 88 STREET",Queens,11225,QUEENS,40.658089,-73.844432,410,32,4293311,2147483647,89201,QN1003,1900-05-23,15314,62,3,41,64
319,"HYDE LEADERSHIP CHARTER SCHOOL - X",X,8,"LSP AUDITORIUM STAGE & SPOT LIGHTING",999.999999,CIP,X074,"730 BRYANT AVENUE",Bronx,11225,BRONX,40.815455,-73.885770,202,17,2006566,2027630279,11701,BX0201,1900-05-23,12343,8,5,43,24
320,"P.S. 155 - BROOKLYN",K,23,"CRACKED MASONRY / DOMESTIC PIPING / ELECTRICAL SYSTEMS / HEATING PLANT UPGRADE / ROOF LEAKS / WATER INFILTRATION / WINDOWS",999.999999,CIP,K155,"1355 HERKIMER STREET",Brooklyn,11225,BROOKLYN,40.677415,-73.908734,316,37,3042263,2147483647,369,BK1601,1900-05-23,13516,55,2,37,46
321,"X000 - BRONX",X,10,"PLAYGROUND REDEVELOPMENT",999.999999,CIP,X469,"2347 MORRIS AVENUE",Bronx,11225,BRONX,40.859448,-73.901113,205,14,2000000,2031830026,239,BX0503,1900-05-23,11606,6,5,29,29
322,"SCHOOL FOR COOPERATIVE TECHNICAL EDUCATION",M,4,"ELECTRICAL WORK FOR A/C INITIATIVE",999.999999,CIP,M646,"321 EAST 96 STREET",Manhattan,11225,MANHATTAN,40.783638,-73.945626,111,8,1083927,1016680001,15602,MN1101,1900-05-23,10099,7,4,35,14
323,"HEADQTRS 65 CNTRL ADMIN. - K",K,15,"ELEVATOR MODERNIZATION",999.999999,CIP,K801,"65 COURT STREET",Brooklyn,11225,BROOKLYN,40.692012,-73.991227,302,33,3002557,2147483647,9,BK0201,1900-05-23,16865,68,2,38,54
324,"P.S. 117 - QUEENS",Q,28,"ROOF REPLACEMENT",999.999999,CIP,Q117,"85-15 143RD STREET",Queens,11225,QUEENS,40.709463,-73.813376,408,24,4208040,2147483647,232,QN0805,1900-05-23,24670,25,3,24,65
325,"P.S. 270 - BROOKLYN",K,13,"EXTERIOR MASONRY / FLOOD ELIMINATION / PARAPETS / ROOFS",999.999999,CIP,K270,"241 EMERSON PLACE",Brooklyn,11225,BROOKLYN,40.690202,-73.961478,302,35,3055378,2147483647,193,BK0204,1900-05-23,13829,68,2,48,55
326,"P.S. 60 - QUEENS",Q,27,"FY20 RESO A SUPPLEMENTAL COOLING",999.999999,CIP,Q060,"91-02 88 AVENUE",Queens,11225,QUEENS,40.692179,-73.852636,409,32,4184144,2147483647,18,QN0905,1900-05-23,24017,46,3,41,60
327,"P.S. 62 - BRONX",X,8,"ELECTRICAL WORK FOR A/C INITIATIVE / LSP LL26 CODE COMPLIANCE/EXIT SIGN REPLACEMENT",999.999999,CIP,X062,"660 FOX STREET",Bronx,11225,BRONX,40.814031,-73.900609,202,17,2005089,2026830065,83,BX0202,1900-05-23,10933,8,5,35,24
328,"P.S. 150 - BRONX",X,12,"EXTERIOR MASONRY / PARAPETS / ROOFS",999.999999,CIP,X150,"920 EAST 167 STREET",Bronx,11225,BRONX,40.826360,-73.894398,202,17,2005681,2027170005,12701,BX0202,1900-05-23,10937,8,5,43,24
329,"I.S. 210 - QUEENS",Q,27,"FY20 RESO A AUDITORIUM UPGRADE / FY20 RESO A PATH OF TRAVEL AUDITORIUM UPGRADE",999.999999,CIP,Q210,"93-11 101 AVENUE",Queens,11225,QUEENS,40.683858,-73.847470,409,32,4188567,2147483647,38,QN0904,1900-05-23,24012,46,3,41,60
330,"EDUCATIONAL CAMPUS @ 500 19TH STREET - BROOKLYN",K,15,Lease,999.999999,CAP,K280,"500 19TH STREET",Brooklyn,11215,BROOKLYN,40.656944,-73.983115,307,39,3017307,2147483647,1502,BK0701,1900-05-23,17617,9,2,7,45
331,"P.S. 277 - BRONX",X,7,"COVID VENTILATION",999.999999,CIP,X027,"519 ST ANNS AVENUE",Bronx,11225,BRONX,40.813517,-73.913402,201,8,2000114,2022740023,43,BX0101,1900-05-23,10933,49,5,35,23
332,"3K CENTER @ 10 ELM STREET - STATEN ISLAND",R,31,Lease,999.999999,CAP,R074,"10 ELM STREET","Staten Is",10310,"STATEN IS",40.641761,-74.114913,501,49,5168587,2147483647,9701,SI0104,1900-05-23,10697,4,1,13,74
333,"CURIOUS YOUNG LEARNERS PRE-K CENTER",Q,27,"PLAYGROUND REDEVELOPMENT",999.999999,CIP,Q477,"87-40 88 STREET",Queens,11225,QUEENS,40.692032,-73.856091,409,32,4438404,2147483647,16,QN0905,1900-05-23,24017,46,3,41,60
334,"P.S. 63 - QUEENS",Q,27,"LSP DOMESTIC WATER HEATER REPLACEMENT",999.999999,CIP,Q063,"90-15 SUTTER AVENUE",Queens,11225,QUEENS,40.676410,-73.846773,410,32,4190727,2147483647,54,QN1002,1900-05-23,24013,62,3,41,64
335,"I.S. 556 - BRONX",X,11,"LSP- VACUUM PUMP REPLACEMENT",999.999999,CIP,X135,"2441 WALLACE AVENUE",Bronx,11225,BRONX,40.862109,-73.864577,211,13,2051313,2044320001,330,BX1104,1900-05-23,11605,59,5,12,32
336,"P.S. 19 - QUEENS",Q,24,"FY20 RESO A AUDITORIUM UPGRADE / FY20 RESO A PATH OF TRAVEL AUDITORIUM UPGRADE",999.999999,CIP,Q019,"98-02 ROOSEVELT AVENUE",Queens,11225,QUEENS,40.749381,-73.867354,404,21,4000000,2147483647,40901,QN0402,1900-05-23,14510,66,3,21,68
337,"I.S. @ 4002 FORT HAMILTON PARKWAY - BROOKLYN",K,15,Demo,999.999999,CAP,K004,"4002 FORT HAMILTON PARKWAY",Brooklyn,11218,BROOKLYN,40.642614,-73.991338,312,38,3000000,2147483647,110,BK1201,1900-05-23,17621,2,2,27,39
338,"P.S. 131 - BROOKLYN",K,15,"FLOOD ELIMINATION / PARAPETS / ROOFS / WATER PENETRATION THROUGH EXTERIOR",999.999999,CIP,K131,"4305 FORT HAMILTON PARKWAY",Brooklyn,11225,BROOKLYN,40.641157,-73.993482,312,44,3136085,2147483647,224,BK1202,1900-05-23,17621,2,2,27,39
339,"P.S. 108 - MANHATTAN",M,4,"EXTERIOR MASONRY / FLOOD ELIMINATION / PARAPETS / ROOFS / RPZ BACKFLOW PREVENTION DEVICES",999.999999,CIP,M108,"1615 MADISON AVENUE",Manhattan,11225,MANHATTAN,40.795146,-73.948368,111,8,1051584,1016140021,17401,MN1101,1900-05-23,12426,7,4,35,14
340,"P.S. 137 - BROOKLYN",K,23,"LSP- HOT WATER HEATER",999.999999,CIP,K137,"121 SARATOGA AVENUE",Brooklyn,11225,BROOKLYN,40.682458,-73.917088,316,41,3040878,2147483647,373,BK1601,1900-05-23,13516,55,2,17,46
341,"3K CENTER @ 18-31 131ST STREET - QUEENS",Q,25,Lease,999.999999,CAP,Q443,"18-31 131ST STREET",Queens,11356,QUEENS,40.782958,-73.837713,407,19,4099024,2147483647,945,QN0701,1900-05-23,14191,22,3,20,67
342,"I.S. 34 - STATEN ISLAND",R,31,"MASONRY / PARAPETS / ROOFS / WINDOWS",999.999999,CIP,R034,"528 ACADEMY AVENUE","Staten Island",11225,"STATEN IS",40.508284,-74.243428,503,51,5088090,2147483647,24401,SI0305,1900-05-23,10694,15,1,9,77
343,"FORT HAMILTON HS - K",K,20,"LSP REPLACE 6' FIRE DOMESTIC WATER MAIN VALVES",999.999999,CIP,K490,"8301 SHORE ROAD",Brooklyn,11225,BROOKLYN,40.627898,-74.039985,310,47,3152318,2147483647,46,BK1001,1900-05-23,17216,10,2,44,41
344,"I.S. 127 - BRONX",X,11,"PLANYC BOILER CONVERSION / PLANYC CLIMATE CONTROL",999.999999,CIP,X127,"1560 PURDY STREET",Bronx,11225,BRONX,40.837931,-73.853524,209,18,2041247,2039480055,222,BX0904,1900-05-23,11271,58,5,31,26
345,"I.S. 562 - BRONX",X,8,"FIRE ALARM / PLANYC BOILER CONVERSION / PLANYC CLIMATE CONTROL",999.999999,CIP,X125,"1111 PUGSLEY AVENUE",Bronx,11225,BRONX,40.829232,-73.856734,209,18,2025717,2037900040,4001,BX0903,1900-05-23,11610,58,5,31,26
346,"P.S. 79 - QUEENS",Q,25,"PLANYC BOILER CONVERSION / PLANYC CLIMATE CONTROL",999.999999,CIP,Q079,"147-27 15 DRIVE",Queens,11225,QUEENS,40.785909,-73.818058,407,19,4105232,2147483647,1039,QN0702,1900-05-23,14192,22,3,20,67
347,"P.S. 132 - MANHATTAN",M,6,"BOILER REPAIR / DEFECTIVE WROUGHT IRON FENCE & HANDRAILS / FY16 RESO A PLAYGROUND REDEVELOPMENT / RPZ BACKFLOW PREVENTION DEVICES / WATER INFILTRATION",999.999999,CIP,M132,"185 WADSWORTH AVENUE",Manhattan,11225,MANHATTAN,40.850626,-73.934377,112,10,1063947,1021650026,271,MN1202,1900-05-23,13091,47,4,39,22
348,"P.S. 253 - BROOKLYN",K,21,"ELECTRICAL WORK FOR A/C INITIATIVE / LL26 CODE COMPLIANCE/EXIT SIGN REPLACEMENT",999.999999,CIP,K253,"601 OCEAN VIEW AVENUE",Brooklyn,11225,BROOKLYN,40.579607,-73.962071,313,48,3244470,2147483647,364,BK1303,1900-05-23,13826,21,2,15,35
349,"QUEENS TECH HS - Q",Q,24,"EXTERIOR MASONRY / FLOOD ELIMINATION / PARAPETS",999.999999,CIP,Q600,"37-02 47 AVENUE",Queens,11225,QUEENS,40.742205,-73.928219,402,26,4003259,2147483647,189,QN0202,1900-05-23,16858,53,3,33,66
350,"P.S. 114 - BRONX",X,9,"PLANYC BOILER CONVERSION / PLANYC CLIMATE CONTROL",999.999999,CIP,X114,"1155 CROMWELL AVENUE",Bronx,11225,BRONX,40.834776,-73.923067,204,16,2003022,2024950100,6302,BX0491,1900-05-23,10930,50,5,42,27
351,"MATH, SCI., RESEARCH & TECH. HS-Q",Q,29,"FY20 RESO A LOW VOLTAGE",999.999999,CIP,Q490,"207-01 116 AVENUE",Queens,11225,QUEENS,40.697819,-73.745728,413,27,4238003,2147483647,53401,QN1304,1900-05-23,15311,63,3,6,63
352,"LOWER EAST SIDE PREP HS - M",M,1,"IPDVS CAMERA INSTALLATION",999.999999,CIP,M025,"145 STANTON STREET",Manhattan,11225,MANHATTAN,40.720581,-73.985645,103,1,1004323,1003540080,3001,MN0302,1900-05-23,11723,70,4,32,4
353,"P.S. 40 - QUEENS",Q,28,"ELECTRICAL WORK FOR A/C INITIATIVE / LSP LL26 CODE COMPLIANCE/EXIT SIGN REPLACEMENT",999.999999,CIP,Q040,"109-20 UNION HALL STREET",Queens,11225,QUEENS,40.694125,-73.790675,412,28,4263341,2147483647,260,QN1202,1900-05-23,24668,41,3,46,61
354,"P.S. 51 - QUEENS",Q,27,"EXTERIOR MASONRY / ROOFS / WINDOWS",999.999999,CIP,Q051,"87-45 117TH STREET",Queens,11225,QUEENS,40.699015,-73.832356,409,29,4449704,2147483647,122,QN0902,1900-05-23,24014,46,3,28,60
355,"P.S. 251 - BROOKLYN",K,22,"ELECTRICAL WORK FOR A/C INITIATIVE",999.999999,CIP,K251,"1037 EAST 54 STREET",Brooklyn,11225,BROOKLYN,40.632524,-73.924417,318,45,3214729,2147483647,722,BK1801,1900-05-23,13825,5,2,8,38
356,"P.S. 3 - STATEN ISLAND",R,31,"PLANYC BOILER CONVERSION / PLANYC CLIMATE CONTROL",999.999999,CIP,R003,"80 SOUTH GOFF AVENUE","Staten Island",11225,"STATEN IS",40.520699,-74.211264,503,51,5083311,2147483647,198,SI0304,1900-05-23,10696,15,1,9,77
357,"P.S. 151 - QUEENS",Q,30,"LSP DOMESTIC WATER HEATER REPLACEMENT",999.999999,CIP,Q151,"50-05 31 AVENUE",Queens,11225,QUEENS,40.757499,-73.908898,401,26,4014094,2147483647,163,QN0104,1900-05-23,14787,39,3,4,72
358,"P.S. 67 - BRONX",X,12,"AUDITORIUM SEATING / PATH OF TRAVEL AUDITORIUM SEATING",999.999999,CIP,X067,"2024 MOHEGAN AVENUE",Bronx,11225,BRONX,40.843945,-73.884788,206,15,2013142,2031230003,363,BX0601,1900-05-23,11269,35,5,43,31
359,"P.S. 42 - QUEENS",Q,27,"EXTERIOR MASONRY / PARAPETS / WINDOWS",999.999999,CIP,Q042,"488 BEACH 66 STREET",Queens,11225,QUEENS,40.594538,-73.795304,414,31,4302817,2147483647,964,QN1402,1900-05-23,20530,51,3,47,58
360,"H.S. @ 53-16 NORTHERN BOULEVARD - QUEENS",Q,78,New,999.999999,CAP,Q472,"53-16 NORTHERN BOULEVARD",Queens,11377,QUEENS,40.753192,-73.907839,402,26,4000000,2147483647,255,QN0203,1900-05-23,14787,53,3,33,66
361,"JOHN DEWEY HS - BROOKLYN",K,21,"EXTERIOR MASONRY / PARAPETS / PAVED AREAS- BLACKTOP / REPLACE UNDERGROUND COMBINATION FIRE/DOMESTIC WATER MAIN / ROOFS / WINDOWS",999.999999,CIP,K540,"50 AVENUE X",Brooklyn,11225,BROOKLYN,40.589268,-73.981738,313,47,3194998,2147483647,308,BK1301,1900-05-23,18183,21,2,45,35
362,"P.S. 124 - MANHATTAN",M,2,"EXTERIOR MASONRY / PARAPETS / ROOFS / WINDOWS",999.999999,CIP,M124,"40 DIVISION STREET",Manhattan,11225,MANHATTAN,40.714182,-73.995451,103,1,1075787,1002890001,16,MN0301,1900-05-23,11723,70,4,32,2
363,"FOREST AVENUE COMMUNITY EDUCATIONAL COMPLEX - STATEN ISLAND",R,31,Lease,999.999999,CAP,R066,"1625 FOREST AVENUE","Staten Is",10302,"STATEN IS",40.624773,-74.142525,501,49,5025214,2147483647,247,SI0106,1900-05-23,10370,4,1,13,75
364,"I.S. 93 - QUEENS",Q,24,"ACCESSIBILITY / EXTERIOR MASONRY / PARAPETS / ROOFS / WINDOWS",999.999999,CIP,Q093,"66-56 FOREST AVENUE",Queens,11225,QUEENS,40.706041,-73.902584,405,30,4083511,2147483647,589,QN0502,1900-05-23,15310,54,3,34,62
365,"EAST NY FAMILY ACADEMY - BROOKLYN",K,78,New,999.999999,CAP,K599,"760 VAN SICLEN AVENUE",Brooklyn,11207,BROOKLYN,40.661319,-73.886300,305,42,3426033,2147483647,1104,BK0503,1900-05-23,17214,45,2,25,47
366,"P.S. 20 - MANHATTAN",M,1,"EXTERIOR MASONRY / PARAPETS / ROOFS / SECURITY LIGHTING / WINDOWS",999.999999,CIP,M020,"166 ESSEX STREET",Manhattan,11225,MANHATTAN,40.721540,-73.986648,103,1,1004325,1003550001,3001,MN0302,1900-05-23,11723,70,4,32,4
367,"3K CENTER @ 330 EAST 38TH STREET - MANHATTAN",M,2,Lease,999.999999,CAP,M508,"330 EAST 38 STREET",Manhattan,10016,MANHATTAN,40.746742,-73.972741,106,4,1076166,1009437501,78,MN0603,1900-05-23,12078,71,4,51,9
368,"P.S. 4 - BRONX",X,9,"RNWL SBHC / RNWL SBHC- ELECTRICAL UPGRADE / STH SBHC- MENTAL HEALTH SUITE",999.999999,CIP,X004,"1701 FULTON AVENUE",Bronx,11225,BRONX,40.840891,-73.898166,203,15,2009659,2029300001,165,BX0302,1900-05-23,10935,34,5,22,25
369,"JILL CHAIFETZ TRANSFER HIGH SCHOOL - BRONX",X,7,"EXTERIOR MASONRY / FLOOD ELIMINATION / PARAPETS",999.999999,CIP,X184,"778 FOREST AVENUE",Bronx,11225,BRONX,40.819006,-73.905869,201,17,2004690,2026550030,77,BX0102,1900-05-23,10934,49,5,43,23
370,"P.S. 135 - QUEENS",Q,29,"ELECTRICAL WORK FOR A/C INITIATIVE",999.999999,CIP,Q135,"207-11 89TH AVENUE",Queens,11225,QUEENS,40.720154,-73.757367,413,23,4225816,2147483647,49202,QN1303,1900-05-23,24336,63,3,16,63
371,"BRONX INTERNATIONAL - BRONX",X,9,"LSP- GYM UPGRADE",999.999999,CIP,X400,"1110 BOSTON ROAD",Bronx,11225,BRONX,40.827642,-73.904473,203,17,2004526,2026340001,135,BX0301,1900-05-23,10934,34,5,42,25
372,"P.S. 185 - BROOKLYN",K,20,"COVID VENTILATION",999.999999,CIP,K185,"8601 RIDGE BOULEVARD",Brooklyn,11225,BROOKLYN,40.623986,-74.033779,310,47,3153416,2147483647,60,BK1001,1900-05-23,17216,10,2,44,41
373,"P.S. 66 - BRONX",X,12,"ELECTRICAL WORK FOR A/C INITIATIVE",999.999999,CIP,X066,"1001 JENNINGS STREET",Bronx,11225,BRONX,40.831165,-73.887094,203,17,2010916,2030080001,157,BX0303,1900-05-23,11269,34,5,43,25
374,"I.S. 192 - QUEENS",Q,29,"IPDVS CAMERA INSTALLATION",999.999999,CIP,Q192,"109-89 204 STREET",Queens,11225,QUEENS,40.706460,-73.753579,412,27,4234318,2147483647,508,QN1206,1900-05-23,15312,41,3,6,71
375,"HILLCREST HS - QUEENS",Q,28,"CONCRETE COURTYARD PLAZA & STAIRS / RETAINING WALLS",999.999999,CIP,Q505,"160-05 HIGHLAND AVENUE",Queens,11225,QUEENS,40.709079,-73.801856,408,24,4448767,2147483647,448,QN0805,1900-05-23,24340,25,3,24,65
376,"P.S. 39 - STATEN ISLAND",R,31,"EXTERIOR MASONRY / FLOOD ELIMINATION / ROOFS",999.999999,CIP,R039,"99 MACFARLAND AVENUE","Staten Island",11225,"STATEN IS",40.597653,-74.070052,502,50,5045488,2147483647,2002,SI0201,1900-05-23,10692,30,1,14,76
377,"P.S. 43 - QUEENS",Q,27,"AIR CONDITIONING SPLIT SYSTEM / CLIMATE CONTROL / EXTERIOR MASONRY / WINDOWS",999.999999,CIP,Q043,"160 BEACH 29TH STREET",Queens,11225,QUEENS,40.593834,-73.761740,414,31,4467711,2147483647,99802,QN1401,1900-05-23,20529,51,3,47,59
378,"P.S. 3 - BROOKLYN",K,13,"EXTERIOR MASONRY / PARAPETS / ROOFS",999.999999,CIP,K003,"50 JEFFERSON AVENUE",Brooklyn,11225,BROOKLYN,40.682663,-73.955338,303,36,3057406,2147483647,227,BK0301,1900-05-23,17618,69,2,49,51
379,"P.S. 203 - QUEENS",Q,26,"PLANYC BOILER CONVERSION / PLANYC CLIMATE CONTROL",999.999999,CIP,Q203,"53-11 SPRINGFIELD BOULEVARD",Queens,11225,QUEENS,40.754201,-73.760636,411,23,4161005,2147483647,138501,QN1102,1900-05-23,14506,26,3,16,69
380,"I.S. 529 - BRONX",X,11,"EXTERIOR MASONRY / PARAPETS / ROOFS / WINDOWS",999.999999,CIP,X142,"3750 BAYCHESTER AVENUE",Bronx,11225,BRONX,40.884953,-73.840524,212,12,2066190,2049350001,48402,BX1202,1900-05-23,11275,29,5,2,30
381,"P.S. 140 - MANHATTAN",M,1,"ELECTRICAL WORK FOR A/C INITIATIVE",999.999999,CIP,M140,"123 RIDGE STREET",Manhattan,11225,MANHATTAN,40.719250,-73.983056,103,1,1004091,1003440001,2201,MN0302,1900-05-23,11723,70,4,32,4
382,"M.S. 282 - QUEENS",Q,27,"LSP- DOMESTIC WATER HEATER",999.999999,CIP,Q465,"8-21 BAY 25 STREET",Queens,11225,QUEENS,40.602010,-73.762795,414,31,4300730,2147483647,100804,QN1401,1900-05-23,20529,51,3,47,59
383,"P.S. 122 - QUEENS",Q,30,"AUDITORIUM UPGRADE / PATH OF TRAVEL AUDITORIUM UPGRADE",999.999999,CIP,Q122,"21-21 DITMARS BOULEVARD",Queens,11225,QUEENS,40.780347,-73.916655,401,22,4019633,2147483647,103,QN0101,1900-05-23,16862,39,3,4,72
384,"P.S. 88 - BRONX",X,9,"LSP FY20 RESO A AUDITORIUM UPGRADE",999.999999,CIP,X088,"1340 SHERIDAN AVENUE",Bronx,11225,BRONX,40.837275,-73.913574,204,16,2094533,2028300017,17902,BX0403,1900-05-23,10934,50,5,42,27
385,"P.S. 107 - QUEENS",Q,25,"LSP DOMESTIC WATER HEATER REPLACEMENT",999.999999,CIP,Q107,"167-02 45 AVENUE",Queens,11225,QUEENS,40.756013,-73.799706,407,19,4123454,2147483647,1195,QN0705,1900-05-23,14193,22,3,20,67
386,"I.S. 447 - BRONX",X,10,"FY19 RESO A IPDVS CAMERA INSTALLATION",999.999999,CIP,X079,"125 EAST 181 STREET",Bronx,11225,BRONX,40.854872,-73.903458,205,14,2013849,2031700001,23704,BX0503,1900-05-23,10931,6,5,29,29
387,"I.S. 390 - BRONX",X,10,"LSP CAFETERIA CEILING REPLACEMENT",999.999999,CIP,X026,"1930 ANDREWS AVENUE",Bronx,11225,BRONX,40.854701,-73.913197,205,14,2014692,2032160002,24502,BX0501,1900-05-23,10931,6,5,29,29
388,"J.H.S. 158 - QUEENS",Q,26,"ELECTRICAL WORK FOR A/C INITIATIVE / LL26 CODE COMPLIANCE/EXIT SIGN REPLACEMENT / LOW VOLTAGE ELECTRICAL",999.999999,CIP,Q158,"46-35 OCEANIA STREET",Queens,11225,QUEENS,40.756139,-73.772862,411,19,4438325,2147483647,1447,QN1102,1900-05-23,14196,26,3,20,69
389,"P.S. 138 - BRONX",X,8,Addition,999.999999,CAP,X138,"2060 LAFAYETTE AVENUE",Bronx,10473,BRONX,40.822665,-73.853366,209,18,2022289,2036090016,74,BX0903,1900-05-23,11611,58,5,31,26
390,"3K CENTER II @ 186-16 UNION TURNPIKE - QUEENS",Q,26,Lease,999.999999,CAP,Q461,"186-16 UNION TURNPIKE",Queens,11366,QUEENS,40.728705,-73.782690,408,24,4156125,2147483647,1277,QN0804,1900-05-23,14508,25,3,24,65
391,"I.S. 93 - QUEENS",Q,24,"RPZ BACKFLOW PREVENTION DEVICES",999.999999,CIP,Q093,"66-56 FOREST AVENUE",Queens,11225,QUEENS,40.706041,-73.902584,405,30,4083511,2147483647,589,QN0502,1900-05-23,15310,54,3,34,62
392,"I.S. 2 - STATEN ISLAND",R,31,"FLOOD ELIMINATION",999.999999,CIP,R002,"333 MIDLAND AVENUE","Staten Island",11225,"STATEN IS",40.576725,-74.100726,502,50,5053571,2147483647,11203,SI0202,1900-05-23,10693,30,1,14,76
393,"P.S. 21 - STATEN ISLAND",R,31,"FY20 RESO A PATH OF TRAVEL PLAYGROUND UPGRADE / FY20 RESO A PLAYGROUND UPGRADE",999.999999,CIP,R021,"168 HOOKER PLACE","Staten Island",11225,"STATEN IS",40.631523,-74.144297,501,49,5026335,2147483647,213,SI0106,1900-05-23,10371,4,1,13,75
394,"I.S. 340 - BROOKLYN",K,13,"LEAD SERVICE LINE",999.999999,CIP,K874,"227 STERLING PLACE",Brooklyn,11225,BROOKLYN,40.676094,-73.970380,308,35,3029060,2147483647,163,BK0801,1900-05-23,13829,16,2,48,50
395,"P.S. 192 - BROOKLYN",K,20,"COVID VENTILATION",999.999999,CIP,K192,"4715 18 AVENUE",Brooklyn,11225,BROOKLYN,40.629303,-73.979995,312,44,3128909,2147483647,476,BK1202,1900-05-23,16867,2,2,18,39
396,"IT TAKES A VILLAGE ACADEMY - K",K,18,"LSP FLOOR REPLACEMENT",999.999999,CIP,K415,"5800 TILDEN AVENUE",Brooklyn,11225,BROOKLYN,40.648657,-73.922171,317,45,3104598,2147483647,936,BK1703,1900-05-23,16866,61,2,26,40
397,"I.S. 162 - BROOKLYN",K,32,"LL 26-EXIT SIGNS",999.999999,CIP,K162,"1390 WILLOUGHBY AVENUE",Brooklyn,11225,BROOKLYN,40.707229,-73.919805,304,34,3073018,2147483647,445,BK0401,1900-05-23,13828,42,2,30,53
398,"P.S. 138 - BROOKLYN",K,17,"EXTERIOR MASONRY / FLOOD ELIMINATION / PARAPETS / ROOFS",999.999999,CIP,K138,"760 PROSPECT PLACE",Brooklyn,11225,BROOKLYN,40.674380,-73.951443,308,36,3330794,2147483647,31701,BK0802,1900-05-23,17618,16,2,49,49
399,"HS FOR HEALTH CAREER & SCIENCE - M",M,6,"WATER MAIN- BACKFLOW ISSUE",999.999999,CIP,M465,"549 AUDUBON AVENUE",Manhattan,11225,MANHATTAN,40.855855,-73.927120,112,10,1076751,1021600018,277,MN1202,1900-05-23,13098,47,4,39,22
400,"HS FOR HEALTH PROF & HUMAN SERV-M",M,2,"LOW-VOLTAGE ELECTRICAL SYSTEM / RPZ BACKFLOW PREVENTION DEVICES",999.999999,CIP,M475,"345 EAST 15 STREET",Manhattan,11225,MANHATTAN,40.732447,-73.983031,106,2,1020419,1009220008,48,MN0602,1900-05-23,11724,71,4,50,7
401,"P.S. 186 - BROOKLYN",K,20,"IPDVS CAMERA INSTALLATION",999.999999,CIP,K186,"7601 19 AVENUE",Brooklyn,11225,BROOKLYN,40.611483,-73.994677,311,43,3160923,2147483647,274,BK1101,1900-05-23,17616,1,2,45,37
402,"P.S. 329 - BROOKLYN",K,21,"FY20 RESO A ROOM RENOVATION",999.999999,CIP,K329,"2929 WEST 30 STREET",Brooklyn,11225,BROOKLYN,40.574607,-73.996292,313,47,3189517,2147483647,342,BK1302,1900-05-23,18184,21,2,45,35
403,"P.S. 212 - BRONX",X,12,"EXTERIOR MASONRY / PARAPETS / PLAYGROUND REDEVELOPMENT / ROOFS / WINDOWS",999.999999,CIP,X198,"1180 TINTON AVENUE",Bronx,11225,BRONX,40.828419,-73.900721,203,17,2004869,2026720001,135,BX0301,1900-05-23,10934,34,5,43,25
404,"I.S. 2 - BROOKLYN",K,17,"IPDVS CAMERA INSTALLATION",999.999999,CIP,K002,"655 PARKSIDE AVENUE",Brooklyn,11225,BROOKLYN,40.656183,-73.951583,309,40,3378201,2147483647,802,BK0902,1900-05-23,13509,17,2,11,44
405,"P.S. 152 - MANHATTAN",M,6,"DEMOLITION OF MINI BUILDING / PATH OF TRAVEL PLAYGROUND REDEVELOPMENT / PLAYGROUND REDEVELOPMENT",999.999999,CIP,M152,"93 NAGLE AVENUE",Manhattan,11225,MANHATTAN,40.860412,-73.927936,112,10,1064149,1021730001,283,MN1202,1900-05-23,13098,47,4,39,22
406,"I.S. 126 - QUEENS",Q,30,"WATER INFILTRATION",999.999999,CIP,Q126,"31-51 21 STREET",Queens,11225,QUEENS,40.766264,-73.930709,401,22,4006382,2147483647,77,QN0102,1900-05-23,16863,39,3,4,72
407,"RED HOOK NEIGHBORHOOD SCHOOL  - K",K,15,"FLOOD ELIMINATION",999.999999,CIP,K027,"27 HUNTINGTON STREET",Brooklyn,11225,BROOKLYN,40.677564,-74.005166,306,38,3008342,2147483647,59,BK0601,1900-05-23,13514,14,2,7,48
408,"I.S. 206B - BRONX",X,10,"FLOOD ELIMINATION / PARAPETS",999.999999,CIP,X206,"2280 AQUEDUCT AVENUE",Bronx,11225,BRONX,40.859686,-73.906495,207,14,2086823,2032090001,253,BX0701,1900-05-23,11606,24,5,29,34
409,"P.S. 143 - QUEENS",Q,24,"ELECTRICAL WORK FOR A/C INITIATIVE",999.999999,CIP,Q908,"98-07 38TH AVENUE",Queens,11225,QUEENS,40.750246,-73.867825,403,21,4043936,2147483647,40902,QN0303,1900-05-23,14510,65,3,21,73
410,"P.S. 159 - BROOKLYN",K,19,"ELECTRICAL WORK FOR A/C INITIATIVE / LL26 CODE COMPLIANCE/EXIT SIGN REPLACEMENT",999.999999,CIP,K159,"2781 PITKIN AVENUE",Brooklyn,11225,BROOKLYN,40.675766,-73.869469,305,42,3094735,2147483647,1200,BK0505,1900-05-23,17215,45,2,25,47
411,"P.S. 96 - QUEENS",Q,27,Demo,999.999999,CAP,Q096,"130-01 ROCKAWAY BOULEVARD",Queens,11420,QUEENS,40.674991,-73.808371,410,28,4253028,2147483647,180,QN1001,1900-05-23,24016,62,3,46,64
412,"X012 SPED - BRONX",X,11,"IPDVS CAMERA INSTALLATION",999.999999,CIP,X012,"2555 TRATMAN AVENUE",Bronx,11225,BRONX,40.840145,-73.844419,210,18,2041864,2039830001,200,BX1001,1900-05-23,11270,43,5,12,28
413,"I.S. 49 - STATEN ISLAND",R,31,"COVID VENTILATION",999.999999,CIP,R049,"101 WARREN STREET","Staten Island",11225,"STATEN IS",40.620347,-74.081643,501,49,5014184,2147483647,29,SI0102,1900-05-23,10691,4,1,13,74
414,"FRANCIS LEWIS HS ANNEX - QUEENS",Q,78,New,999.999999,CAP,Q434,"174-25 59TH AVENUE",Queens,11355,QUEENS,40.740500,-73.796851,411,20,4617811,2147483647,1417,QN1101,1900-05-23,14507,26,3,3,69
415,"P.S./I.S. @ 3761 10TH AVENUE - MANHATTAN",M,6,Demo,999.999999,CAP,M502,"3761 10TH AVENUE",Manhattan,10034,MANHATTAN,40.860962,-73.921475,112,10,1000000,1021980001,299,MN1203,1900-05-23,13092,47,4,39,22
416,"P.S. 26 - QUEENS",Q,26,"PLANYC BOILER CONVERSION / PLANYC CLIMATE CONTROL",999.999999,CIP,Q026,"195-02 69 AVENUE",Queens,11225,QUEENS,40.736922,-73.777990,408,23,4153296,2147483647,134702,QN0803,1900-05-23,14507,25,3,16,65
417,"P.S. 16 - BROOKLYN",R,31,"EXTERIOR MASONRY / FLOOD ELIMINATION / FY18 RESO A PLAYGROUNDS / PATH OF TRAVEL RESO A PLAYGROUNDS / ROOFS",999.999999,CIP,R016,"195 DANIEL LOW TERRACE","Staten Island",11225,"STATEN IS",40.639430,-74.080005,501,49,5000291,2147483647,11,SI0101,1900-05-23,10369,4,1,13,74
418,"P.S. 254 - QUEENS",Q,27,"LSP DOMESTIC WATER HEATER REPLACEMENT",999.999999,CIP,Q254,"84-40 101ST STREET",Queens,11225,QUEENS,40.697961,-73.847960,409,29,4191296,2147483647,24,QN0902,1900-05-23,24014,46,3,41,60
419,"ALFRED E. SMITH HS - X",X,7,"ELECTRICAL WORK FOR A/C INITIATIVE",999.999999,CIP,X600,"333 EAST 151 STREET",Bronx,11225,BRONX,40.818232,-73.919867,201,17,2001874,2024110022,67,BX0102,1900-05-23,10929,49,5,43,23
420,"P.S. 304 - BRONX",X,8,"PLANYC BOILER CONVERSION / PLANYC CLIMATE CONTROL",999.999999,CIP,X101,"2750 LAFAYETTE AVENUE",Bronx,11225,BRONX,40.827471,-73.829753,210,13,2080231,2055470001,152,BX1002,1900-05-23,11274,43,5,12,28
421,"P.S. 97 - QUEENS",Q,27,"FY21 RESO A ROOM CONVERSION / PATH OF TRAVEL RESO A ROOM CONVERSION",999.999999,CIP,Q097,"85-52 85 STREET",Queens,11225,QUEENS,40.694518,-73.859659,409,32,4181565,2147483647,12,QN0905,1900-05-23,24017,46,3,41,60
422,"P.S. 12 - QUEENS",Q,24,"EXTERIOR MASONRY / FLOOD ELIMINATION / PARAPETS / ROOFS / WINDOWS",999.999999,CIP,Q012,"42-00 72 STREET",Queens,11225,QUEENS,40.742633,-73.892805,402,26,4031853,2147483647,48302,QN0203,1900-05-23,14787,53,3,33,66
423,"P.S. 9 - BRONX",X,10,"ELECTRICAL WORK FOR A/C INITIATIVE",999.999999,CIP,X009,"230 EAST 183 STREET",Bronx,11225,BRONX,40.857067,-73.898936,205,15,2013561,2031500010,38301,BX0503,1900-05-23,10935,6,5,22,29
424,"M.S. 137 - QUEENS",Q,27,"FY20 RESO A AUDITORIUM UPGRADE",999.999999,CIP,Q137,"109-15 98TH STREET",Queens,11225,QUEENS,40.678100,-73.839948,410,32,4467457,2147483647,86,QN1002,1900-05-23,24013,62,3,41,64
425,"X186 SPED - BRONX",X,12,"FLOOD ELIMINATION / PLANYC BOILER CONVERSION / PLANYC CLIMATE CONTROL",999.999999,CIP,X136,"750 JENNINGS STREET",Bronx,11225,BRONX,40.831820,-73.898075,203,17,2010344,2029690001,151,BX0301,1900-05-23,10937,34,5,42,25
426,"BENJAMIN N. CARDOZO HS - QUEENS",Q,26,"AUDITORIUM CEILING",999.999999,CIP,Q415,"57-00 223 STREET",Queens,11225,QUEENS,40.752333,-73.755990,411,23,4161735,2147483647,138501,QN1102,1900-05-23,14506,26,3,16,69
427,"P.S. 165 - QUEENS",Q,25,"ELECTRICAL WORK FOR A/C INITIATIVE",999.999999,CIP,Q165,"70-35 150 STREET",Queens,11225,QUEENS,40.729741,-73.818446,408,24,4144881,2147483647,77906,QN0801,1900-05-23,14509,25,3,24,65
428,"BERGTRAUM HS - MANHATTAN",M,2,"LSP- AUDITORIUM UPGRADE",999.999999,CIP,M520,"411 PEARL STREET",Manhattan,11225,MANHATTAN,40.711442,-74.000851,101,1,1001388,1001130100,2901,MN0102,1900-05-23,13096,56,4,32,2
429,"P.S. 277 - BROOKLYN",K,22,"EXTERIOR MASONRY / PARAPETS / ROOFS",999.999999,CIP,K277,"2529 GERRITSEN AVENUE",Brooklyn,11225,BROOKLYN,40.596145,-73.928793,318,46,3242369,2147483647,666,BK1891,1900-05-23,13825,5,2,8,36
430,"ADULT AND CONTINUING EDUCATION",K,13,"EXTERIOR MASONRY / FLOOD ELIMINATION / LOW VOLTAGE ELECTRICAL SYSTEMS / PARAPETS / ROOFS / VENTILATION / WINDOWS",999.999999,CIP,K743,"475 NOSTRAND AVENUE",Brooklyn,11225,BROOKLYN,40.681233,-73.949737,303,36,3053020,2147483647,249,BK0301,1900-05-23,17618,69,2,49,51
431,"SECONDARY SCHOOL FOR LAW - K",K,15,MASONRY,999.999999,CIP,K460,"237 7TH AVENUE",Brooklyn,11225,BROOKLYN,40.669629,-73.979287,306,39,3025510,2147483647,155,BK0602,1900-05-23,17617,14,2,27,50
432,"P.S. 7 - QUEENS",Q,24,"LSP- DOMESTIC WATER HEATER",999.999999,CIP,Q007,"80-55 CORNISH AVENUE",Queens,11225,QUEENS,40.739115,-73.882487,404,25,4467710,2147483647,485,QN0401,1900-05-23,14784,66,3,5,68
433,"I.S. 224 - MANHATTAN",M,4,"RPZ BACKFLOW PREVENTION DEVICES",999.999999,CIP,M099,"410 EAST 100 STREET",Manhattan,11225,MANHATTAN,40.785671,-73.942548,111,8,1052998,1016930001,162,MN1101,1900-05-23,12426,7,4,35,14
434,"EAST NEW YORK ELEMENTARY SCHOOL OF EXCELLENCE  -K",K,19,"EXTERIOR MASONRY / PARAPETS / ROOFS / WINDOWS",999.999999,CIP,K072,"605 SHEPHERD AVENUE",Brooklyn,11225,BROOKLYN,40.669387,-73.879614,305,42,3090219,2147483647,1164,BK0502,1900-05-23,17215,45,2,25,47
435,"P.S. 36 - STATEN ISLAND",R,31,"EXTERIOR MASONRY / FLOOD ELIMINATION / PARAPETS / ROOFS",999.999999,CIP,R844,"200 JEFFERSON BOULEVARD","Staten Island",11225,"STATEN IS",40.544575,-74.181735,503,51,5107743,2147483647,17005,SI0304,1900-05-23,10699,15,1,9,77
436,"P.S. 20 - BROOKLYN",K,13,"PUBLIC ADDRESS SYSTEM",999.999999,CIP,K020,"225 ADELPHI STREET",Brooklyn,11225,BROOKLYN,40.690765,-73.971376,302,35,3058531,2147483647,183,BK0203,1900-05-23,17212,68,2,48,55
437,"P.S. 92 - QUEENS",Q,30,ROOFS,999.999999,CIP,Q292,"99-01 34TH AVENUE",Queens,11225,QUEENS,40.755418,-73.869017,403,21,4042496,2147483647,377,QN0303,1900-05-23,14510,65,3,21,73
438,"P.S. 146 - MANHATTAN",M,4,"RPZ BACKFLOW PREVENTION DEVICES",999.999999,CIP,M146,"421 EAST 106 STREET",Manhattan,11225,MANHATTAN,40.789295,-73.939262,111,8,1052999,1017000001,162,MN1101,1900-05-23,12426,7,4,35,14
439,"P.S. 122 - QUEENS",Q,30,"FY16 RESO A SOLAR PANELS",999.999999,CIP,Q122,"21-21 DITMARS BOULEVARD",Queens,11225,QUEENS,40.780347,-73.916655,401,22,4019633,2147483647,103,QN0101,1900-05-23,16862,39,3,4,72
